
{"stores":[{"no":"1001","lat":"52.372992","lng":"4.890011","format":"IS","street":"Nieuwezijds Voorburgwal","housenr":"226","zip":"1012 RR","city":"Amsterdam","wifi":"y","OVS":"y","FTS":"y","BLA":"y","GDA":"y","LTR":"y","KPS":"y","PKB":"y","WFS":"y","disabled":"y","status":"Open from 08:00 to 22:00","phoneNumber":"0219-164218344"},{"no":"1002","lat":"53.137815","lng":"6.435106","format":"IS","street":"Julianaplein","housenr":"13","zip":"9301 LA","city":"Roden","wifi":"y","OVS":"y","FTS":"y","BLA":"y","GDA":"y","LTR":"y","KPS":"y","PGR":"y","disabled":"y","status":"Open from 08:00 to 21:00","phoneNumber":"0519-165018907"},{"no":"1003","lat":"51.99419","lng":"4.474514","format":"IS","street":"Westerwater","housenr":"2","zip":"2651 JN","city":"Berkel En Rodenrijs","wifi":"y","OVS":"y","FTS":"y","BLA":"y","GDA":"y","BLP":"y","LTR":"y","KPS":"y","PBZ":"y","status":"Open from 08:00 to 20:00","phoneNumber":"0119-165118777"},{"no":"1004","lat":"51.570384","lng":"5.054236","format":"IS","street":"Westermarkt","housenr":"17","zip":"5042 MC","city":"Tilburg","wifi":"y","OVS":"y","BLA":"y","GDA":"y","LTR":"y","KPS":"y","PGR":"y","status":"Open from 08:00 to 20:00","phoneNumber":"0139-14671190"},{"no":"1005","lat":"51.572232","lng":"4.804898","format":"IS","street":"De Burcht","housenr":"1","zip":"4834 HE","city":"Breda","wifi":"y","OVS":"y","FTS":"y","BLA":"y","GDA":"y","LTR":"y","KPS":"y","PGR":"y","status":"Open from 08:00 to 20:00","phoneNumber":"0769-15654183"},{"no":"1006","lat":"52.349894","lng":"4.939671","format":"IS","street":"Helmholtzstraat","housenr":"63","zip":"1098 LE","city":"Amsterdam","wifi":"y","OVS":"y","FTS":"y","BLA":"y","ZFS":"y","GDA":"y","LTR":"y","KPS":"y","PKB":"y","WFS":"y","disabled":"y","status":"Open from 08:00 to 22:00","phoneNumber":"0219-166947165"},{"no":"1007","lat":"51.607022","lng":"4.78928","format":"IS","street":"Moerwijk","housenr":"2","zip":"4826 HN","city":"Breda","wifi":"y","SMS":"y","PSS":"y","OVS":"y","FTS":"y","BLA":"y","GDA":"y","HLA":"y","LTR":"y","KPS":"y","PGR":"y","disabled":"y","status":"Open from 08:00 to 21:00","phoneNumber":"0769-15877052"},{"no":"1008","lat":"52.239233","lng":"6.893108","format":"IS","street":"Rijnstraat","housenr":"20","zip":"7523 GG","city":"Enschede","wifi":"y","SMS":"y","OVS":"y","FTS":"y","BLA":"y","GDA":"y","BLP":"y","LTR":"y","KPS":"y","PGR":"y","disabled":"y","status":"Open from 08:00 to 21:00","phoneNumber":"0539-14353519"},{"no":"1009","lat":"52.362463","lng":"4.913075","format":"IS","street":"Sarphatistraat","housenr":"141k","zip":"1018 GD","city":"Amsterdam","wifi":"y","OVS":"y","FTS":"y","BLA":"y","GDA":"y","BLP":"y","LTR":"y","KPS":"y","PKB":"y","WFS":"y","disabled":"y","status":"Open from 08:00 to 22:00","phoneNumber":"0219-164278080"},{"no":"1011","lat":"52.303557","lng":"4.859719","format":"IS","street":"Rembrandthof","housenr":"49","zip":"1181 ZL","city":"Amstelveen","wifi":"y","OVS":"y","FTS":"y","BLA":"y","GDA":"y","BLP":"y","HLA":"y","LTR":"y","KPS":"y","PKB":"y","disabled":"y","status":"Open from 08:00 to 22:00","phoneNumber":"0219-166419435"},{"no":"1014","lat":"52.461168","lng":"4.622734","format":"IS","street":"Dudokplein","housenr":"10","zip":"1971 EP","city":"Ijmuiden","wifi":"y","OVS":"y","FTS":"y","BLA":"y","GDA":"y","LTR":"y","KPS":"y","PGR":"y","disabled":"y","status":"Open from 08:00 to 21:00","phoneNumber":"02559-1515355"},{"no":"1015","lat":"51.841008","lng":"5.839595","format":"IS","street":"Molenweg","housenr":"11","zip":"6542 PP","city":"Nijmegen","wifi":"y","SMS":"y","OVS":"y","FTS":"y","BLA":"y","GDA":"y","LTR":"y","KPS":"y","PGR":"y","status":"Open from 08:00 to 20:00","phoneNumber":"0249-13771475"},{"no":"1016","lat":"51.988965","lng":"5.921694","format":"IS","street":"Klarendalseweg","housenr":"139","zip":"6822 GG","city":"Arnhem","wifi":"y","OVS":"y","FTS":"y","BLA":"y","GDA":"y","BLP":"y","HLA":"y","LTR":"y","KPS":"y","PGR":"y","disabled":"y","status":"Open from 08:00 to 21:00","phoneNumber":"0269-14422463"},{"no":"1018","lat":"51.208839","lng":"6.020873","format":"XL","street":"Schaarbroekerweg","housenr":"14","zip":"6042 EJ","city":"Roermond","wifi":"y","SMS":"y","OVS":"y","FTS":"y","BLA":"y","ZFS":"y","GDA":"y","HLA":"y","LTR":"y","KPS":"y","GRS":"y","PGR":"y","WFS":"y","disabled":"y","status":"Open from 08:00 to 22:00","phoneNumber":"04759-1325362"},{"no":"1019","lat":"50.967117","lng":"5.826826","format":"IS","street":"Rijksweg Zuid","housenr":"2","zip":"6161 BP","city":"Geleen","wifi":"y","PSS":"y","OVS":"y","FTS":"y","BLA":"y","GDA":"y","BLP":"y","LTR":"y","KPS":"y","PKB":"y","disabled":"y","status":"Open from 08:00 to 21:00","phoneNumber":"0469-14743582"},{"no":"1020","lat":"51.874785","lng":"4.466694","format":"IS","street":"Krabbendijkestraat","housenr":"10","zip":"3086 LW","city":"Rotterdam","wifi":"y","OVS":"y","FTS":"y","BLA":"y","GDA":"y","LTR":"y","KPS":"y","PGR":"y","status":"Open from 08:00 to 20:00","phoneNumber":"0119-164801387"},{"no":"1021","lat":"51.838209","lng":"5.874174","format":"IS","street":"Daalseweg","housenr":"200","zip":"6521 GR","city":"Nijmegen","wifi":"y","SMS":"y","OVS":"y","FTS":"y","BLA":"y","ZFS":"y","GDA":"y","LTR":"y","KPS":"y","PDG":"y","SB":"y","disabled":"y","status":"Open from 08:00 to 22:00","phoneNumber":"0249-13221335"},{"no":"1024","lat":"51.996319","lng":"5.968974","format":"IS","street":"Hoofdstraat","housenr":"232","zip":"6881 TS","city":"Velp Gld","wifi":"y","OVS":"y","FTS":"y","BLA":"y","ZFS":"y","GDA":"y","BLP":"y","LTR":"y","KPS":"y","PKB":"y","WFS":"y","disabled":"y","status":"Open from 08:00 to 21:00","phoneNumber":"0269-13619001"},{"no":"1025","lat":"52.214282","lng":"5.28576","format":"IS","street":"Eemnesserweg","housenr":"40","zip":"3741 GB","city":"Baarn","wifi":"y","PSS":"y","OVS":"y","FTS":"y","BLA":"y","ZFS":"y","GDA":"y","BLP":"y","LTR":"y","KPS":"y","PGR":"y","WFS":"y","disabled":"y","status":"Open from 08:00 to 21:00","phoneNumber":"0359-15412863"},{"no":"1026","lat":"53.173017","lng":"6.607926","format":"IS","street":"Kerkstraat","housenr":"27","zip":"9751 BB","city":"Haren Gn","wifi":"y","PSS":"y","OVS":"y","FTS":"y","BLA":"y","ZFS":"y","GDA":"y","LTR":"y","KPS":"y","PDG":"y","status":"Open from 08:00 to 20:00","phoneNumber":"0519-165344191"},{"no":"1027","lat":"52.359139","lng":"4.802557","format":"XL","street":"Osdorpplein","housenr":"469","zip":"1068 SZ","city":"Amsterdam","wifi":"y","SMS":"y","PSS":"y","OVS":"y","FTS":"y","BLA":"y","ZFS":"y","GDA":"y","HLA":"y","LTR":"y","KPS":"y","GRS":"y","PDG":"y","WFS":"y","SB":"y","disabled":"y","status":"Open from 08:00 to 22:00","phoneNumber":"0219-166193944"},{"no":"1028","lat":"52.04313","lng":"4.260796","format":"IS","street":"De Stede","housenr":"10","zip":"2543 BG","city":"'S9-1Gravenhage","wifi":"y","PSS":"y","OVS":"y","FTS":"y","BLA":"y","GDA":"y","HLA":"y","LTR":"y","KPS":"y","PGR":"y","disabled":"y","status":"Open from 08:00 to 22:00","phoneNumber":"0719-163666691"},{"no":"1029","lat":"51.588149","lng":"4.77263","format":"IS","street":"Nieuwstraat","housenr":"45","zip":"4811 WV","city":"Breda","wifi":"y","PSS":"y","OVS":"y","FTS":"y","BLA":"y","GDA":"y","BLP":"y","LTR":"y","KPS":"y","PKB":"y","status":"Open from 08:00 to 20:00","phoneNumber":"0769-15207171"},{"no":"1030","lat":"52.536608","lng":"5.694452","format":"IS","street":"Beursstraat","housenr":"12","zip":"8253 GG","city":"Dronten","wifi":"y","PSS":"y","OVS":"y","FTS":"y","BLA":"y","GDA":"y","BLP":"y","LTR":"y","KPS":"y","GGG":"y","PGR":"y","disabled":"y","status":"Open from 08:00 to 21:00","phoneNumber":"03219-1318902"},{"no":"1032","lat":"51.983447","lng":"5.948719","format":"IS","street":"Hanzestraat","housenr":"145","zip":"6826 MJ","city":"Arnhem","wifi":"y","OVS":"y","FTS":"y","BLA":"y","GDA":"y","LTR":"y","KPS":"y","PGR":"y","status":"Open from 08:00 to 20:00","phoneNumber":"0269-13613271"},{"no":"1033","lat":"52.362485","lng":"4.939544","format":"IS","street":"Molukkenstraat","housenr":"101A","zip":"1095 AZ","city":"Amsterdam","wifi":"y","FTS":"y","BLA":"y","GDA":"y","BLP":"y","HLA":"y","LTR":"y","KPS":"y","PKB":"y","WFS":"y","disabled":"y","status":"Open from 08:00 to 22:00","phoneNumber":"0219-166944198"},{"no":"1034","lat":"51.812193","lng":"4.666832","format":"IS","street":"Achterom","housenr":"42","zip":"3311 KC","city":"Dordrecht","wifi":"y","OVS":"y","FTS":"y","BLA":"y","GDA":"y","BLP":"y","HLA":"y","LTR":"y","KPS":"y","PKB":"y","status":"Open from 08:00 to 20:00","phoneNumber":"0789-16142277"},{"no":"1035","lat":"52.344417","lng":"4.891211","format":"IS","street":"Scheldeplein","housenr":"5","zip":"1078 GR","city":"Amsterdam","wifi":"y","OVS":"y","FTS":"y","BLA":"y","LTR":"y","KPS":"y","PKB":"y","disabled":"y","status":"Open from 08:00 to 22:00","phoneNumber":"0219-166644900"},{"no":"1036","lat":"52.200533","lng":"5.966728","format":"IS","street":"Talingweg","housenr":"169","zip":"7331 GN","city":"Apeldoorn","wifi":"y","OVS":"y","FTS":"y","BLA":"y","ZFS":"y","GDA":"y","BLP":"y","HLA":"y","LTR":"y","KPS":"y","PBZ":"y","WFS":"y","disabled":"y","status":"Open from 08:00 to 22:00","phoneNumber":"0559-15334845"},{"no":"1037","lat":"52.03596","lng":"4.31518","format":"XL","street":"Bogaardplein","housenr":"22","zip":"2284 DM","city":"Rijswijk Zh","wifi":"y","PSS":"y","OVS":"y","FTS":"y","BLA":"y","ZFS":"y","GDA":"y","HLA":"y","LTR":"y","KPS":"y","GRS":"y","PDG":"y","WFS":"y","disabled":"y","status":"Open from 08:00 to 22:00","phoneNumber":"0719-163941921"},{"no":"1039","lat":"51.909513","lng":"4.31617","format":"IS","street":"Dr. Wiardi Beckmansingel","housenr":"10","zip":"3132 CX","city":"Vlaardingen","wifi":"y","OVS":"y","FTS":"y","BLA":"y","GDA":"y","BLP":"y","HLA":"y","LTR":"y","KPS":"y","PGR":"y","RCL":"y","status":"Open from 08:00 to 20:00","phoneNumber":"0119-164344164"},{"no":"1040","lat":"52.378372","lng":"4.896219","format":"IS","street":"Prins Hendrikkade","housenr":"20","zip":"1012 TL","city":"Amsterdam","wifi":"y","OVS":"y","GDA":"y","BLP":"y","LTR":"y","KPS":"y","PKB":"y","WFS":"y","disabled":"y","status":"Open from 08:00 to 22:00","phoneNumber":"0219-166270601"},{"no":"1041","lat":"51.432634","lng":"5.469944","format":"IS","street":"Hoogstraat","housenr":"100","zip":"5615 PS","city":"Eindhoven","wifi":"y","OVS":"y","FTS":"y","BLA":"y","GDA":"y","BLP":"y","LTR":"y","KPS":"y","PGR":"y","disabled":"y","status":"Open from 08:00 to 22:00","phoneNumber":"0419-162448929"},{"no":"1042","lat":"52.043569","lng":"4.476235","format":"IS","street":"Samanthagang","housenr":"64","zip":"2719 CK","city":"Zoetermeer","wifi":"y","SMS":"y","PSS":"y","OVS":"y","FTS":"y","BLA":"y","ZFS":"y","GDA":"y","LTR":"y","KPS":"y","PGR":"y","WFS":"y","status":"Open from 08:00 to 20:00","phoneNumber":"0799-13616758"},{"no":"1044","lat":"52.988997","lng":"6.580111","format":"IS","street":"Bremstraat","housenr":"9","zip":"9404 GA","city":"Assen","wifi":"y","OVS":"y","FTS":"y","BLA":"y","GDA":"y","BLP":"y","LTR":"y","KPS":"y","PGR":"y","status":"Open from 08:00 to 20:00","phoneNumber":"05929-1316744"},{"no":"1045","lat":"51.56996","lng":"4.791388","format":"IS","street":"Valkeniersplein","housenr":"2b","zip":"4835 RB","city":"Breda","wifi":"y","OVS":"y","FTS":"y","BLA":"y","ZFS":"y","GDA":"y","BLP":"y","LTR":"y","KPS":"y","PGR":"y","WFS":"y","disabled":"y","status":"Open from 08:00 to 22:00","phoneNumber":"0769-15654380"},{"no":"1047","lat":"52.371904","lng":"4.53079","format":"IS","street":"Grote Krocht","housenr":"9","zip":"2042 LT","city":"Zandvoort","wifi":"y","PSS":"y","OVS":"y","FTS":"y","BLA":"y","GDA":"y","LTR":"y","KPS":"y","PKB":"y","status":"Open from 08:00 to 20:00","phoneNumber":"0239-15712657"},{"no":"1048","lat":"52.254356","lng":"5.226796","format":"IS","street":"Zevenend","housenr":"2","zip":"1251 RN","city":"Laren Nh","wifi":"y","OVS":"y","FTS":"y","BLA":"y","ZFS":"y","GDA":"y","BLP":"y","LTR":"y","KPS":"y","PBZ":"y","WFS":"y","status":"Open from 08:00 to 20:00","phoneNumber":"0359-15315856"},{"no":"1049","lat":"51.548874","lng":"5.067153","format":"IS","street":"Korvelplein","housenr":"191","zip":"5025 JX","city":"Tilburg","wifi":"y","OVS":"y","FTS":"y","GDA":"y","BLP":"y","LTR":"y","KPS":"y","PGR":"y","disabled":"y","status":"Open from 08:00 to 21:00","phoneNumber":"0139-14683078"},{"no":"1050","lat":"51.692024","lng":"5.303655","format":"IS","street":"Arena","housenr":"16","zip":"5211 XT","city":"'S9-1Hertogenbosch","wifi":"y","OVS":"y","FTS":"y","BLA":"y","GDA":"y","LTR":"y","KPS":"y","PKB":"y","status":"Open from 08:00 to 20:00","phoneNumber":"0739-16130555"},{"no":"1051","lat":"52.079196","lng":"4.320127","format":"IS","street":"Turfmarkt","housenr":"103","zip":"2511 DH","city":"'S9-1Gravenhage","wifi":"y","OVS":"y","BLA":"y","GDA":"y","BLP":"y","LTR":"y","KPS":"y","PKB":"y","disabled":"y","status":"Open from 07:00 to 21:00","phoneNumber":"0719-163458568"},{"no":"1052","lat":"50.869383","lng":"6.068816","format":"IS","street":"Hertogenlaan","housenr":"29","zip":"6461 BT","city":"Kerkrade","wifi":"y","OVS":"y","FTS":"y","BLA":"y","GDA":"y","BLP":"y","LTR":"y","KPS":"y","GGG":"y","PGR":"y","status":"Open from 08:00 to 12:00","closed":"y","phoneNumber":"0459-15455958"},{"no":"1053","lat":"51.427916","lng":"5.509809","format":"IS","street":"Sint Petrus Canisiuslaan","housenr":"43","zip":"5645 GC","city":"Eindhoven","OVS":"y","FTS":"y","BLA":"y","GDA":"y","LTR":"y","KPS":"y","PGR":"y","disabled":"y","status":"Open from 08:00 to 21:00","phoneNumber":"0419-162117330"},{"no":"1054","lat":"51.941754","lng":"4.547585","format":"IS","street":"Marinus Bolkplein","housenr":"4","zip":"3067 AK","city":"Rotterdam","wifi":"y","OVS":"y","FTS":"y","BLA":"y","GDA":"y","BLP":"y","LTR":"y","KPS":"y","PGR":"y","status":"Open from 08:00 to 20:00","phoneNumber":"0119-164204640"},{"no":"1056","lat":"52.297318","lng":"5.234659","format":"IS","street":"Lindenlaan","housenr":"10","zip":"1271 BA","city":"Huizen","PSS":"y","OVS":"y","FTS":"y","BLA":"y","ZFS":"y","GDA":"y","BLP":"y","LTR":"y","KPS":"y","PBZ":"y","WFS":"y","RCL":"y","disabled":"y","status":"Open from 08:00 to 21:00","phoneNumber":"0359-15254150"},{"no":"1058","lat":"50.886518","lng":"5.969614","format":"IS","street":"Homerusplein","housenr":"9","zip":"6411 AW","city":"Heerlen","wifi":"y","OVS":"y","FTS":"y","BLA":"y","ZFS":"y","GDA":"y","BLP":"y","LTR":"y","KPS":"y","PKB":"y","WFS":"y","status":"Open from 08:00 to 20:00","phoneNumber":"0459-15714449"},{"no":"1059","lat":"52.215746","lng":"5.96198","format":"IS","street":"Deventerstraat","housenr":"10","zip":"7311 BJ","city":"Apeldoorn","wifi":"y","PSS":"y","OVS":"y","FTS":"y","BLA":"y","GDA":"y","BLP":"y","LTR":"y","KPS":"y","PKB":"y","status":"Open from 08:00 to 20:00","phoneNumber":"0559-15219552"},{"no":"1060","lat":"53.187861","lng":"6.554665","format":"IS","street":"B S F von Suttnerstraat","housenr":"1","zip":"9728 WZ","city":"Groningen","wifi":"y","OVS":"y","FTS":"y","BLA":"y","GDA":"y","LTR":"y","KPS":"y","PGR":"y","status":"Open from 08:00 to 20:00","phoneNumber":"0519-165274229"},{"no":"1061","lat":"52.361176","lng":"4.899779","format":"IS","street":"Frederiksplein","housenr":"1","zip":"1017 XK","city":"Amsterdam","wifi":"y","OVS":"y","FTS":"y","GDA":"y","BLP":"y","LTR":"y","KPS":"y","PKB":"y","disabled":"y","status":"Open from 08:00 to 22:00","phoneNumber":"0219-164209818"},{"no":"1062","lat":"52.086849","lng":"5.240645","format":"IS","street":"Emmaplein","housenr":"2","zip":"3701 DA","city":"Zeist","FTS":"y","BLA":"y","GDA":"y","BLP":"y","LTR":"y","KPS":"y","PDG":"y","RCL":"y","status":"Open from 08:00 to 20:00","phoneNumber":"0319-166917573"},{"no":"1063","lat":"52.144212","lng":"5.379475","format":"IS","street":"Leusderweg","housenr":"79","zip":"3818 AA","city":"Amersfoort","wifi":"y","OVS":"y","FTS":"y","BLA":"y","ZFS":"y","GDA":"y","BLP":"y","LTR":"y","KPS":"y","PGR":"y","WFS":"y","disabled":"y","status":"Open from 08:00 to 21:00","phoneNumber":"0339-14613447"},{"no":"1066","lat":"52.221847","lng":"5.17518","format":"IS","street":"Langestraat","housenr":"53","zip":"1211 GV","city":"Hilversum","wifi":"y","PSS":"y","OVS":"y","FTS":"y","BLA":"y","ZFS":"y","GDA":"y","BLP":"y","LTR":"y","KPS":"y","PDG":"y","WFS":"y","disabled":"y","status":"Open from 08:00 to 21:00","phoneNumber":"0359-16244545"},{"no":"1067","lat":"52.631524","lng":"4.723205","format":"IS","street":"Van Ostadelaan","housenr":"294","zip":"1816 JH","city":"Alkmaar","wifi":"y","SMS":"y","OVS":"y","FTS":"y","BLA":"y","GDA":"y","LTR":"y","KPS":"y","PGR":"y","disabled":"y","status":"Open from 08:00 to 21:00","phoneNumber":"0729-15121036"},{"no":"1068","lat":"52.049609","lng":"4.652472","format":"IS","street":"Koningin Wilhelminaplein","housenr":"42","zip":"2741 EC","city":"Waddinxveen","OVS":"y","FTS":"y","BLA":"y","ZFS":"y","GDA":"y","BLP":"y","LTR":"y","KPS":"y","PGR":"y","WFS":"y","RCL":"y","status":"Open from 08:00 to 20:00","phoneNumber":"01829-1613861"},{"no":"1069","lat":"52.188724","lng":"4.471654","format":"IS","street":"Irislaan","housenr":"83","zip":"2343 CH","city":"Oegstgeest","wifi":"y","PSS":"y","OVS":"y","FTS":"y","BLA":"y","ZFS":"y","GDA":"y","BLP":"y","LTR":"y","KPS":"y","PBZ":"y","WFS":"y","status":"Open from 08:00 to 20:00","phoneNumber":"0719-15173616"},{"no":"1071","lat":"51.643401","lng":"4.86052","format":"IS","street":"Keiweg","housenr":"11","zip":"4901 JD","city":"Oosterhout Nb","PSS":"y","OVS":"y","FTS":"y","BLA":"y","GDA":"y","BLP":"y","LTR":"y","KPS":"y","PKB":"y","status":"Open from 08:00 to 20:00","phoneNumber":"01629-1453803"},{"no":"1072","lat":"52.268904","lng":"6.164574","format":"IS","street":"Karel de Groteplein","housenr":"20","zip":"7415 DH","city":"Deventer","wifi":"y","OVS":"y","FTS":"y","BLA":"y","GDA":"y","HLA":"y","LTR":"y","KPS":"y","PGR":"y","status":"Open from 08:00 to 20:00","phoneNumber":"05719-16625804"},{"no":"1073","lat":"52.282561","lng":"4.826204","format":"IS","street":"Westwijkplein","housenr":"90","zip":"1187 LV","city":"Amstelveen","wifi":"y","OVS":"y","FTS":"y","BLA":"y","GDA":"y","LTR":"y","KPS":"y","PGR":"y","disabled":"y","status":"Open from 08:00 to 22:00","phoneNumber":"0219-166418444"},{"no":"1074","lat":"50.946241","lng":"5.970379","format":"IS","street":"Schiffelerstraat","housenr":"8","zip":"6441 CN","city":"Brunssum","PSS":"y","OVS":"y","FTS":"y","BLA":"y","GDA":"y","LTR":"y","KPS":"y","PGR":"y","status":"Open from 08:00 to 12:00","closed":"y","phoneNumber":"0459-15253607"},{"no":"1075","lat":"52.619201","lng":"4.747474","format":"IS","street":"Geert Groteplein","housenr":"7","zip":"1813 BM","city":"Alkmaar","wifi":"y","OVS":"y","FTS":"y","BLA":"y","GDA":"y","BLP":"y","HLA":"y","LTR":"y","KPS":"y","PGR":"y","disabled":"y","status":"Open from 08:00 to 21:00","phoneNumber":"0729-15401065"},{"no":"1076","lat":"52.318288","lng":"4.865719","format":"IS","street":"Bourgondischelaan","housenr":"149-128","zip":"1181 DD","city":"Amstelveen","OVS":"y","FTS":"y","BLA":"y","GDA":"y","BLP":"y","LTR":"y","KPS":"y","PGR":"y","disabled":"y","status":"Open from 08:00 to 21:00","phoneNumber":"0219-166432059"},{"no":"1077","lat":"51.420077","lng":"5.491616","format":"IS","street":"Roostenlaan","housenr":"112","zip":"5644 GJ","city":"Eindhoven","wifi":"y","SMS":"y","OVS":"y","FTS":"y","BLA":"y","GDA":"y","LTR":"y","KPS":"y","PGR":"y","disabled":"y","status":"Open from 08:00 to 22:00","phoneNumber":"0419-162112047"},{"no":"1078","lat":"52.091785","lng":"5.130971","format":"IS","street":"Nachtegaalstraat","housenr":"55","zip":"3581 AD","city":"Utrecht","wifi":"y","PSS":"y","OVS":"y","FTS":"y","BLA":"y","GDA":"y","LTR":"y","KPS":"y","PKB":"y","disabled":"y","status":"Open from 08:00 to 22:00","phoneNumber":"0319-162416226"},{"no":"1079","lat":"51.887454","lng":"4.546505","format":"IS","street":"Keizerswaard","housenr":"33","zip":"3078 AL","city":"Rotterdam","wifi":"y","PSS":"y","OVS":"y","FTS":"y","BLA":"y","GDA":"y","BLP":"y","LTR":"y","KPS":"y","PGR":"y","status":"Open from 08:00 to 20:00","phoneNumber":"0119-164822861"},{"no":"1080","lat":"52.331297","lng":"4.876907","format":"XL","street":"Gelderlandplein","housenr":"47","zip":"1082 KZ","city":"Amsterdam","wifi":"y","SMS":"y","PSS":"y","OVS":"y","FTS":"y","BLA":"y","ZFS":"y","GDA":"y","HLA":"y","LTR":"y","KPS":"y","GRS":"y","PDG":"y","WFS":"y","SB":"y","disabled":"y","status":"Open from 08:00 to 22:00","phoneNumber":"0219-166423794"},{"no":"1081","lat":"52.005217","lng":"4.390922","format":"IS","street":"Gouden Rijderplein","housenr":"1","zip":"2645 EX","city":"Delfgauw","wifi":"y","SMS":"y","PSS":"y","FTS":"y","BLA":"y","ZFS":"y","GDA":"y","LTR":"y","KPS":"y","PGR":"y","status":"Open from 08:00 to 20:00","phoneNumber":"0159-12615544"},{"no":"1082","lat":"51.353205","lng":"5.458689","format":"IS","street":"Corridor","housenr":"24","zip":"5554 HN","city":"Valkenswaard","wifi":"y","PSS":"y","OVS":"y","FTS":"y","BLA":"y","GDA":"y","LTR":"y","KPS":"y","PKB":"y","status":"Open from 08:00 to 20:00","phoneNumber":"0419-162012662"},{"no":"1083","lat":"52.310487","lng":"5.033738","format":"IS","street":"Amstellandlaan","housenr":"20","zip":"1382 CE","city":"Weesp","wifi":"y","OVS":"y","FTS":"y","BLA":"y","GDA":"y","LTR":"y","KPS":"y","PGR":"y","status":"Open from 08:00 to 20:00","phoneNumber":"02949-1414580"},{"no":"1085","lat":"51.967731","lng":"6.295692","format":"IS","street":"Rozengaardseweg","housenr":"18A","zip":"7001 DP","city":"Doetinchem","wifi":"y","PSS":"y","OVS":"y","FTS":"y","BLA":"y","GDA":"y","BLP":"y","LTR":"y","KPS":"y","PKB":"y","disabled":"y","status":"Open from 08:00 to 21:00","phoneNumber":"03149-1325309"},{"no":"1086","lat":"52.348458","lng":"6.650421","format":"IS","street":"Nieuwstraat","housenr":"169","zip":"7605 AD","city":"Almelo","wifi":"y","OVS":"y","FTS":"y","BLA":"y","GDA":"y","LTR":"y","KPS":"y","PGR":"y","status":"Open from 08:00 to 20:00","phoneNumber":"05469-1819432"},{"no":"1088","lat":"52.496675","lng":"4.664267","format":"IS","street":"Wijkerbaan","housenr":"2","zip":"1945 SE","city":"Beverwijk","wifi":"y","OVS":"y","FTS":"y","BLA":"y","GDA":"y","BLP":"y","HLA":"y","LTR":"y","KPS":"y","PGR":"y","status":"Open from 08:00 to 20:00","phoneNumber":"02519-1230100"},{"no":"1089","lat":"52.061165","lng":"4.328241","format":"IS","street":"Lorentzplein","housenr":"76","zip":"2522 EH","city":"'S9-1Gravenhage","wifi":"y","OVS":"y","FTS":"y","BLA":"y","GDA":"y","BLP":"y","HLA":"y","LTR":"y","KPS":"y","PKB":"y","disabled":"y","status":"Open from 08:00 to 22:00","phoneNumber":"0719-163993620"},{"no":"1090","lat":"52.35254","lng":"4.855586","format":"IS","street":"Amstelveenseweg","housenr":"186","zip":"1075 XR","city":"Amsterdam","wifi":"y","OVS":"y","FTS":"y","GDA":"y","BLP":"y","KPS":"y","PKB":"y","disabled":"y","status":"Open from 08:00 to 22:00","phoneNumber":"0219-164702495"},{"no":"1091","lat":"52.144726","lng":"4.40342","format":"IS","street":"Stadhoudersplein","housenr":"4","zip":"2241 EB","city":"Wassenaar","wifi":"y","PSS":"y","OVS":"y","FTS":"y","BLA":"y","ZFS":"y","GDA":"y","BLP":"y","LTR":"y","KPS":"y","PBZ":"y","WFS":"y","RCL":"y","disabled":"y","status":"Open from 08:00 to 21:00","phoneNumber":"0719-165115344"},{"no":"1092","lat":"51.871115","lng":"5.399868","format":"IS","street":"Kamperfoelie","housenr":"1","zip":"4007 TK","city":"Tiel","wifi":"y","FTS":"y","BLA":"y","GDA":"y","LTR":"y","KPS":"y","PGR":"y","status":"Open from 08:00 to 20:00","phoneNumber":"03449-1635371"},{"no":"1093","lat":"53.233715","lng":"6.552905","format":"IS","street":"Eikenlaan","housenr":"39","zip":"9741 EH","city":"Groningen","wifi":"y","OVS":"y","FTS":"y","BLA":"y","GDA":"y","BLP":"y","LTR":"y","KPS":"y","PGR":"y","status":"Open from 08:00 to 20:00","phoneNumber":"0519-165778456"},{"no":"1094","lat":"51.88824","lng":"5.42907","format":"IS","street":"Molenstraatje","housenr":"2","zip":"4001 CB","city":"Tiel","wifi":"y","PSS":"y","OVS":"y","FTS":"y","BLA":"y","ZFS":"y","GDA":"y","BLP":"y","LTR":"y","KPS":"y","PDG":"y","WFS":"y","RCL":"y","disabled":"y","status":"Open from 08:00 to 21:00","phoneNumber":"03449-1614706"},{"no":"1095","lat":"51.57592","lng":"5.038356","format":"IS","street":"Paletplein","housenr":"33","zip":"5044 JC","city":"Tilburg","OVS":"y","FTS":"y","GDA":"y","KPS":"y","PGR":"y","status":"Open from 08:00 to 20:00","phoneNumber":"0139-14676502"},{"no":"1096","lat":"52.781584","lng":"6.893954","format":"IS","street":"Baander","housenr":"165","zip":"7811 HT","city":"Emmen","wifi":"y","OVS":"y","FTS":"y","BLA":"y","GDA":"y","BLP":"y","LTR":"y","KPS":"y","PKB":"y","status":"Open from 08:00 to 20:00","phoneNumber":"05919-1612204"},{"no":"1097","lat":"51.554922","lng":"5.090485","format":"IS","street":"Piusplein","housenr":"34","zip":"5038 WN","city":"Tilburg","wifi":"y","PSS":"y","OVS":"y","FTS":"y","BLA":"y","GDA":"y","LTR":"y","KPS":"y","PKB":"y","status":"Open from 08:00 to 20:00","phoneNumber":"0139-15802873"},{"no":"1098","lat":"52.268554","lng":"5.183967","format":"IS","street":"Koekoeklaan","housenr":"88","zip":"1403 EH","city":"Bussum","wifi":"y","PSS":"y","OVS":"y","FTS":"y","BLA":"y","ZFS":"y","GDA":"y","BLP":"y","LTR":"y","KPS":"y","PGR":"y","WFS":"y","disabled":"y","status":"Open from 08:00 to 21:00","phoneNumber":"0359-16914030"},{"no":"1100","lat":"51.696738","lng":"5.266791","format":"IS","street":"Helftheuvelpassage","housenr":"1","zip":"5224 AA","city":"'S9-1Hertogenbosch","wifi":"y","OVS":"y","FTS":"y","BLA":"y","GDA":"y","LTR":"y","KPS":"y","PBZ":"y","status":"Open from 08:00 to 20:00","phoneNumber":"0739-16217456"},{"no":"1101","lat":"51.98327","lng":"5.915017","format":"IS","street":"Velperbuitensingel","housenr":"4","zip":"6828 CT","city":"Arnhem","wifi":"y","OVS":"y","FTS":"y","BLA":"y","GDA":"y","LTR":"y","KPS":"y","PKB":"y","disabled":"y","status":"Open from 08:00 to 22:00","phoneNumber":"0269-13702444"},{"no":"1102","lat":"51.320489","lng":"3.846251","format":"IS","street":"Bellamystraat","housenr":"141","zip":"4536 AJ","city":"Terneuzen","wifi":"y","OVS":"y","FTS":"y","BLA":"y","ZFS":"y","GDA":"y","BLP":"y","LTR":"y","KPS":"y","PGR":"y","WFS":"y","status":"Open from 08:00 to 20:00","phoneNumber":"01159-1612691"},{"no":"1103","lat":"51.97004","lng":"5.668124","format":"IS","street":"Stadsbrink","housenr":"375","zip":"6707 AA","city":"Wageningen","wifi":"y","PSS":"y","OVS":"y","FTS":"y","BLA":"y","ZFS":"y","GDA":"y","BLP":"y","LTR":"y","KPS":"y","PGR":"y","WFS":"y","disabled":"y","status":"Open from 08:00 to 22:00","phoneNumber":"03179-1411514"},{"no":"1105","lat":"52.378614","lng":"4.845948","format":"IS","street":"Gulden Winckelplantsoen","housenr":"5","zip":"1055 EK","city":"Amsterdam","wifi":"y","PSS":"y","OVS":"y","FTS":"y","BLA":"y","GDA":"y","BLP":"y","HLA":"y","LTR":"y","KPS":"y","PKB":"y","WFS":"y","RCL":"y","disabled":"y","status":"Open from 08:00 to 22:00","phoneNumber":"0219-166865065"},{"no":"1106","lat":"52.342071","lng":"4.96287","format":"XL","street":"Diemerplein","housenr":"200","zip":"1111 JD","city":"Diemen","wifi":"y","SMS":"y","OVS":"y","FTS":"y","BLA":"y","ZFS":"y","GDA":"y","HLA":"y","LTR":"y","KPS":"y","GRS":"y","PBZ":"y","WFS":"y","disabled":"y","status":"Open from 08:00 to 21:00","phoneNumber":"0219-166901923"},{"no":"1107","lat":"52.12647","lng":"4.44821","format":"IS","street":"Schoolstraat","housenr":"1","zip":"2251 BD","city":"Voorschoten","wifi":"y","PSS":"y","OVS":"y","FTS":"y","BLA":"y","ZFS":"y","GDA":"y","BLP":"y","LTR":"y","KPS":"y","PBZ":"y","WFS":"y","disabled":"y","status":"Open from 08:00 to 21:00","phoneNumber":"0719-15615022"},{"no":"1108","lat":"51.967681","lng":"5.907646","format":"IS","street":"Drieslag","housenr":"4","zip":"6832 AM","city":"Arnhem","wifi":"y","SMS":"y","OVS":"y","FTS":"y","BLA":"y","GDA":"y","LTR":"y","KPS":"y","PGR":"y","status":"Open from 08:00 to 20:00","phoneNumber":"0269-13210316"},{"no":"1109","lat":"52.07587","lng":"4.359724","format":"IS","street":"Koningin Julianalaan","housenr":"263","zip":"2273 JG","city":"Voorburg","wifi":"y","OVS":"y","FTS":"y","BLA":"y","GDA":"y","LTR":"y","KPS":"y","PGR":"y","disabled":"y","status":"Open from 08:00 to 21:00","phoneNumber":"0719-163867581"},{"no":"1110","lat":"52.380398","lng":"4.82372","format":"IS","street":"Willem Kraanstraat","housenr":"2","zip":"1063 MG","city":"Amsterdam","wifi":"y","PSS":"y","OVS":"y","FTS":"y","BLA":"y","GDA":"y","BLP":"y","HLA":"y","LTR":"y","KPS":"y","PKB":"y","RCL":"y","disabled":"y","status":"Open from 08:00 to 22:00","phoneNumber":"0219-166113269"},{"no":"1111","lat":"51.904659","lng":"4.250062","format":"IS","street":"Molenweg","housenr":"71","zip":"3181 AT","city":"Rozenburg Zh","wifi":"y","OVS":"y","FTS":"y","BLA":"y","GDA":"y","BLP":"y","LTR":"y","KPS":"y","PGR":"y","status":"Open from 08:00 to 20:00","phoneNumber":"01819-1212696"},{"no":"1112","lat":"52.362763","lng":"4.891887","format":"IS","street":"Vijzelstraat","housenr":"113","zip":"1017 HJ","city":"Amsterdam","wifi":"y","OVS":"y","FTS":"y","GDA":"y","BLP":"y","LTR":"y","KPS":"y","PKB":"y","disabled":"y","status":"Open from 08:00 to 22:00","phoneNumber":"0219-166259405"},{"no":"1113","lat":"52.066721","lng":"4.24537","format":"IS","street":"De Savornin Lohmanplein","housenr":"20","zip":"2566 AC","city":"'S9-1Gravenhage","wifi":"y","SMS":"y","OVS":"y","FTS":"y","BLA":"y","ZFS":"y","GDA":"y","LTR":"y","KPS":"y","PGR":"y","disabled":"y","status":"Open from 08:00 to 22:00","phoneNumber":"0719-163681350"},{"no":"1114","lat":"52.301899","lng":"5.631105","format":"IS","street":"Branderskamp","housenr":"9","zip":"3851 XV","city":"Ermelo","OVS":"y","FTS":"y","BLA":"y","ZFS":"y","GDA":"y","BLP":"y","LTR":"y","KPS":"y","PGR":"y","WFS":"y","RCL":"y","disabled":"y","status":"Open from 08:00 to 21:00","phoneNumber":"03419-1551467"},{"no":"1116","lat":"52.502794","lng":"5.481812","format":"IS","street":"Kamp 049-1","housenr":"222","zip":"8225 HN","city":"Lelystad","PSS":"y","OVS":"y","FTS":"y","BLA":"y","GDA":"y","LTR":"y","KPS":"y","PGR":"y","disabled":"y","status":"Open from 08:00 to 21:00","phoneNumber":"03219-16230839"},{"no":"1117","lat":"52.370895","lng":"4.8703","format":"IS","street":"Bilderdijkstraat","housenr":"37","zip":"1053 KK","city":"Amsterdam","wifi":"y","OVS":"y","FTS":"y","BLA":"y","GDA":"y","LTR":"y","KPS":"y","PKB":"y","WFS":"y","disabled":"y","status":"Open from 08:00 to 22:00","phoneNumber":"0219-166833040"},{"no":"1118","lat":"52.171829","lng":"5.29207","format":"IS","street":"Smitsweg","housenr":"20","zip":"3765 CT","city":"Soest","wifi":"y","SMS":"y","FTS":"y","BLA":"y","GDA":"y","HLA":"y","LTR":"y","KPS":"y","PBZ":"y","disabled":"y","status":"Open from 08:00 to 21:00","phoneNumber":"0359-16017078"},{"no":"1121","lat":"53.1055","lng":"6.100657","format":"IS","street":"De Marke","housenr":"33","zip":"9203 DV","city":"Drachten","SMS":"y","OVS":"y","FTS":"y","BLA":"y","GDA":"y","LTR":"y","KPS":"y","PGR":"y","disabled":"y","status":"Open from 08:00 to 21:00","phoneNumber":"05129-1513547"},{"no":"1122","lat":"52.988176","lng":"6.955722","format":"IS","street":"Gandhiplein","housenr":"12","zip":"9501 DE","city":"Stadskanaal","OVS":"y","FTS":"y","BLA":"y","GDA":"y","BLP":"y","LTR":"y","KPS":"y","PGR":"y","status":"Open from 08:00 to 20:00","phoneNumber":"05999-1614950"},{"no":"1123","lat":"52.510948","lng":"4.667008","format":"IS","street":"Kerkweg","housenr":"85","zip":"1961 JB","city":"Heemskerk","PSS":"y","FTS":"y","BLA":"y","ZFS":"y","GDA":"y","BLP":"y","LTR":"y","KPS":"y","PGR":"y","WFS":"y","status":"Open from 08:00 to 20:00","phoneNumber":"02519-1236339"},{"no":"1126","lat":"52.364466","lng":"6.465567","format":"IS","street":"Spoelerstraat","housenr":"6","zip":"7442 AA","city":"Nijverdal","OVS":"y","FTS":"y","BLA":"y","ZFS":"y","GDA":"y","BLP":"y","LTR":"y","KPS":"y","PGR":"y","WFS":"y","status":"Open from 08:00 to 20:00","phoneNumber":"05489-1613773"},{"no":"1127","lat":"51.974692","lng":"4.24995","format":"IS","street":"Hoofdstraat","housenr":"66A","zip":"2678 CL","city":"De Lier","OVS":"y","FTS":"y","BLA":"y","GDA":"y","LTR":"y","KPS":"y","PBZ":"y","status":"Open from 08:00 to 20:00","phoneNumber":"01749-1518616"},{"no":"1128","lat":"51.65817","lng":"5.299714","format":"IS","street":"Marktveldpassage","housenr":"6","zip":"5261 EC","city":"Vught","wifi":"y","SMS":"y","OVS":"y","FTS":"y","BLA":"y","ZFS":"y","GDA":"y","LTR":"y","KPS":"y","PBZ":"y","WFS":"y","status":"Open from 08:00 to 19:00","phoneNumber":"0739-16560198"},{"no":"1129","lat":"52.109839","lng":"5.182264","format":"IS","street":"Herenweg","housenr":"8","zip":"3732 CM","city":"De Bilt","SMS":"y","OVS":"y","FTS":"y","BLA":"y","ZFS":"y","GDA":"y","LTR":"y","KPS":"y","PGR":"y","disabled":"y","status":"Open from 08:00 to 22:00","phoneNumber":"0319-162203433"},{"no":"1130","lat":"51.485908","lng":"4.309346","format":"IS","street":"Zonneplein","housenr":"31","zip":"4624 BC","city":"Bergen Op Zoom","OVS":"y","FTS":"y","BLA":"y","GDA":"y","BLP":"y","LTR":"y","KPS":"y","PGR":"y","status":"Open from 08:00 to 20:00","phoneNumber":"01649-1233073"},{"no":"1131","lat":"52.788056","lng":"4.796761","format":"IS","street":"Makado Centrum","housenr":"76","zip":"1741 JA","city":"Schagen","wifi":"y","OVS":"y","FTS":"y","BLA":"y","ZFS":"y","GDA":"y","BLP":"y","LTR":"y","KPS":"y","PGR":"y","WFS":"y","status":"Open from 08:00 to 20:00","phoneNumber":"02249-1212593"},{"no":"1132","lat":"52.384594","lng":"4.635524","format":"IS","street":"Kruisstraat","housenr":"10","zip":"2011 PX","city":"Haarlem","wifi":"y","OVS":"y","FTS":"y","BLA":"y","GDA":"y","LTR":"y","KPS":"y","PKB":"y","disabled":"y","status":"Open from 08:00 to 22:00","phoneNumber":"0239-15323555"},{"no":"1133","lat":"52.444243","lng":"4.836675","format":"XL","street":"Vrieschgroenstraat","housenr":"5","zip":"1503 MC","city":"Zaandam","wifi":"y","OVS":"y","FTS":"y","BLA":"y","ZFS":"y","GDA":"y","HLA":"y","LTR":"y","KPS":"y","GRS":"y","PGR":"y","WFS":"y","disabled":"y","status":"Open from 08:00 to 22:00","phoneNumber":"0759-16172528"},{"no":"1134","lat":"51.870347","lng":"4.598227","format":"IS","street":"Ridderhof","housenr":"25","zip":"2981 ET","city":"Ridderkerk","PSS":"y","OVS":"y","FTS":"y","BLA":"y","GDA":"y","LTR":"y","KPS":"y","PDG":"y","status":"Open from 08:00 to 20:00","phoneNumber":"01819-16425774"},{"no":"1135","lat":"52.359837","lng":"4.654851","format":"IS","street":"Menton Passage","housenr":"12","zip":"2037 AB","city":"Haarlem","wifi":"y","OVS":"y","FTS":"y","BLA":"y","GDA":"y","BLP":"y","HLA":"y","LTR":"y","KPS":"y","PKB":"y","status":"Open from 08:00 to 20:00","phoneNumber":"0239-15330016"},{"no":"1137","lat":"51.382757","lng":"5.711376","format":"IS","street":"Postelstraat","housenr":"39","zip":"5711 EM","city":"Someren","OVS":"y","FTS":"y","BLA":"y","GDA":"y","BLP":"y","LTR":"y","KPS":"y","GGG":"y","PGR":"y","status":"Open from 08:00 to 20:00","phoneNumber":"04939-1491317"},{"no":"1138","lat":"51.873917","lng":"4.490412","format":"IS","street":"Slinge","housenr":"191","zip":"3085 ER","city":"Rotterdam","wifi":"y","OVS":"y","FTS":"y","BLA":"y","GDA":"y","LTR":"y","KPS":"y","PGR":"y","status":"Open from 08:00 to 20:00","phoneNumber":"0119-164807148"},{"no":"1140","lat":"51.987713","lng":"5.843166","format":"IS","street":"Pastoor Bruggemanlaan","housenr":"1","zip":"6861 GR","city":"Oosterbeek","wifi":"y","PSS":"y","OVS":"y","FTS":"y","BLA":"y","ZFS":"y","GDA":"y","BLP":"y","LTR":"y","KPS":"y","PBZ":"y","WFS":"y","status":"Open from 08:00 to 20:00","phoneNumber":"0269-13333634"},{"no":"1141","lat":"52.349469","lng":"5.984549","format":"IS","street":"Sint Martinusplein","housenr":"8","zip":"8161 ED","city":"Epe","OVS":"y","FTS":"y","BLA":"y","GDA":"y","LTR":"y","KPS":"y","PGR":"y","status":"Open from 08:00 to 20:00","phoneNumber":"05789-1614416"},{"no":"1142","lat":"51.83732","lng":"4.961364","format":"IS","street":"Piazza Center","housenr":"74","zip":"4204 BS","city":"Gorinchem","SMS":"y","OVS":"y","FTS":"y","BLA":"y","ZFS":"y","GDA":"y","BLP":"y","HLA":"y","LTR":"y","KPS":"y","PGR":"y","WFS":"y","status":"Open from 08:00 to 20:00","phoneNumber":"01839-1632835"},{"no":"1143","lat":"51.627632","lng":"4.858088","format":"IS","street":"Zuiderhout","housenr":"103","zip":"4904 AW","city":"Oosterhout Nb","wifi":"y","OVS":"y","FTS":"y","BLA":"y","GDA":"y","BLP":"y","LTR":"y","KPS":"y","PGR":"y","RCL":"y","status":"Open from 08:00 to 20:00","phoneNumber":"01629-1456130"},{"no":"1144","lat":"52.105191","lng":"4.323128","format":"IS","street":"Theo Mann9-1Bouwmeesterln","housenr":"9","zip":"2597 GV","city":"'S9-1Gravenhage","wifi":"y","OVS":"y","FTS":"y","BLA":"y","ZFS":"y","GDA":"y","LTR":"y","KPS":"y","PGR":"y","WFS":"y","disabled":"y","status":"Open from 08:00 to 21:00","phoneNumber":"0719-163249995"},{"no":"1146","lat":"52.397455","lng":"4.939774","format":"IS","street":"Buikslotermeerplein","housenr":"310","zip":"1025 GB","city":"Amsterdam","wifi":"y","SMS":"y","PSS":"y","OVS":"y","FTS":"y","BLA":"y","ZFS":"y","GDA":"y","HLA":"y","LTR":"y","KPS":"y","PKB":"y","disabled":"y","status":"Open from 08:00 to 21:00","phoneNumber":"0219-166363838"},{"no":"1147","lat":"51.996727","lng":"4.352827","format":"IS","street":"Martinus Nijhofflaan","housenr":"15","zip":"2624 ER","city":"Delft","wifi":"y","OVS":"y","FTS":"y","BLA":"y","GDA":"y","LTR":"y","KPS":"y","PGR":"y","disabled":"y","status":"Open from 08:00 to 21:00","phoneNumber":"0159-12562382"},{"no":"1148","lat":"52.398662","lng":"4.644381","format":"IS","street":"Soendaplein","housenr":"18","zip":"2022 BA","city":"Haarlem","wifi":"y","OVS":"y","FTS":"y","BLA":"y","ZFS":"y","GDA":"y","BLP":"y","LTR":"y","KPS":"y","PDG":"y","WFS":"y","RCL":"y","SB":"y","disabled":"y","status":"Open from 08:00 to 22:00","phoneNumber":"0239-15260170"},{"no":"1149","lat":"52.076097","lng":"4.281353","format":"IS","street":"Weimarstraat","housenr":"118","zip":"2562 HC","city":"'S9-1Gravenhage","wifi":"y","OVS":"y","FTS":"y","BLA":"y","GDA":"y","BLP":"y","LTR":"y","KPS":"y","PKB":"y","disabled":"y","status":"Open from 08:00 to 22:00","phoneNumber":"0719-163649771"},{"no":"1151","lat":"52.087528","lng":"4.382643","format":"XL","street":"Weigelia","housenr":"48","zip":"2262 AB","city":"Leidschendam","wifi":"y","SMS":"y","PSS":"y","OVS":"y","FTS":"y","BLA":"y","ZFS":"y","GDA":"y","HLA":"y","LTR":"y","KPS":"y","PGR":"y","SB":"y","disabled":"y","status":"Open from 08:00 to 22:00","phoneNumber":"0719-163273570"},{"no":"1152","lat":"51.974608","lng":"5.343748","format":"IS","street":"Steenstraat","housenr":"5","zip":"3961 VM","city":"Wijk Bij Duurstede","OVS":"y","FTS":"y","BLA":"y","GDA":"y","BLP":"y","LTR":"y","KPS":"y","PBZ":"y","disabled":"y","status":"Open from 08:00 to 21:00","phoneNumber":"03439-1575445"},{"no":"1153","lat":"50.849318","lng":"5.712424","format":"IS","street":"Scharnerweg","housenr":"110","zip":"6224 JJ","city":"Maastricht","wifi":"y","SMS":"y","PSS":"y","OVS":"y","FTS":"y","BLA":"y","ZFS":"y","LTR":"y","KPS":"y","PGR":"y","WFS":"y","status":"Open from 08:00 to 20:00","phoneNumber":"0439-13635255"},{"no":"1154","lat":"51.863969","lng":"4.657328","format":"IS","street":"Makado9-1Center","housenr":"41","zip":"2951 EH","city":"Alblasserdam","OVS":"y","FTS":"y","BLA":"y","GDA":"y","BLP":"y","LTR":"y","KPS":"y","PGR":"y","status":"Open from 08:00 to 20:00","phoneNumber":"0789-16914450"},{"no":"1155","lat":"52.215065","lng":"5.141511","format":"IS","street":"Kapittelweg","housenr":"105","zip":"1216 HX","city":"Hilversum","wifi":"y","SMS":"y","OVS":"y","FTS":"y","BLA":"y","ZFS":"y","GDA":"y","BLP":"y","LTR":"y","KPS":"y","GRS":"y","PGR":"y","WFS":"y","RCL":"y","SB":"y","disabled":"y","status":"Open from 08:00 to 21:00","phoneNumber":"0359-16248774"},{"no":"1157","lat":"52.196065","lng":"5.431315","format":"IS","street":"Buma","housenr":"1","zip":"3825 ME","city":"Amersfoort","wifi":"y","FTS":"y","BLA":"y","GDA":"y","BLP":"y","LTR":"y","KPS":"y","PGR":"y","WFS":"y","disabled":"y","status":"Open from 08:00 to 21:00","phoneNumber":"0339-14701040"},{"no":"1158","lat":"51.962913","lng":"4.553781","format":"IS","street":"Hesseplaats","housenr":"13","zip":"3069 EA","city":"Rotterdam","wifi":"y","OVS":"y","FTS":"y","BLA":"y","GDA":"y","BLP":"y","LTR":"y","KPS":"y","PGR":"y","status":"Open from 08:00 to 20:00","phoneNumber":"0119-164212910"},{"no":"1159","lat":"52.698536","lng":"6.188624","format":"IS","street":"Grote Akkerstraat","housenr":"1","zip":"7941 BB","city":"Meppel","wifi":"y","PSS":"y","OVS":"y","FTS":"y","BLA":"y","ZFS":"y","GDA":"y","BLP":"y","LTR":"y","KPS":"y","PKB":"y","WFS":"y","RCL":"y","disabled":"y","status":"Open from 08:00 to 21:00","phoneNumber":"05229-1254454"},{"no":"1160","lat":"51.325682","lng":"3.483537","format":"IS","street":"Torenweidelaan","housenr":"2","zip":"4501 AK","city":"Oostburg","wifi":"y","OVS":"y","FTS":"y","BLA":"y","GDA":"y","BLP":"y","LTR":"y","KPS":"y","PGR":"y","status":"Open from 08:00 to 20:00","phoneNumber":"01179-1452530"},{"no":"1161","lat":"53.156252","lng":"6.755369","format":"IS","street":"Gorecht9-1Oost","housenr":"6A","zip":"9603 AA","city":"Hoogezand","wifi":"y","SMS":"y","OVS":"y","FTS":"y","BLA":"y","GDA":"y","LTR":"y","KPS":"y","PGR":"y","status":"Open from 08:00 to 20:00","phoneNumber":"05989-1327714"},{"no":"1162","lat":"52.289291","lng":"4.869137","format":"IS","street":"Groenhof","housenr":"144","zip":"1186 EX","city":"Amstelveen","wifi":"y","OVS":"y","FTS":"y","BLA":"y","GDA":"y","BLP":"y","LTR":"y","KPS":"y","PGR":"y","disabled":"y","status":"Open from 08:00 to 21:00","phoneNumber":"0219-166456002"},{"no":"1163","lat":"52.377683","lng":"4.801285","format":"IS","street":"Lambertus Zijlplein","housenr":"8","zip":"1067 JS","city":"Amsterdam","wifi":"y","SMS":"y","PSS":"y","OVS":"y","FTS":"y","BLA":"y","GDA":"y","HLA":"y","LTR":"y","KPS":"y","PBZ":"y","WFS":"y","disabled":"y","status":"Open from 08:00 to 22:00","phoneNumber":"0219-166115377"},{"no":"1165","lat":"51.615065","lng":"5.547376","format":"IS","street":"Stadhuisplein","housenr":"6","zip":"5461 KS","city":"Veghel","wifi":"y","OVS":"y","FTS":"y","BLA":"y","ZFS":"y","GDA":"y","BLP":"y","LTR":"y","KPS":"y","PDG":"y","WFS":"y","status":"Open from 08:00 to 20:00","phoneNumber":"04139-1343319"},{"no":"1166","lat":"52.288162","lng":"5.172094","format":"IS","street":"Amersfoortsestraatweg","housenr":"3A","zip":"1411 HB","city":"Naarden","wifi":"y","FTS":"y","BLA":"y","GDA":"y","LTR":"y","KPS":"y","PGR":"y","status":"Open from 08:00 to 20:00","phoneNumber":"0359-16782604"},{"no":"1168","lat":"52.31199","lng":"4.87443","format":"IS","street":"Westelijk Halfrond","housenr":"70","zip":"1183 JG","city":"Amstelveen","OVS":"y","FTS":"y","BLA":"y","GDA":"y","LTR":"y","KPS":"y","PGR":"y","disabled":"y","status":"Open from 08:00 to 21:00","phoneNumber":"0219-166453222"},{"no":"1169","lat":"50.857521","lng":"6.027447","format":"IS","street":"Carboonplein","housenr":"22","zip":"6466 CX","city":"Kerkrade","OVS":"y","FTS":"y","BLA":"y","BLP":"y","LTR":"y","KPS":"y","PGR":"y","status":"Open from 08:00 to 20:00","phoneNumber":"0459-15424334"},{"no":"1170","lat":"52.338647","lng":"4.77753","format":"IS","street":"Zeemanlaan","housenr":"2","zip":"1171 BD","city":"Badhoevedorp","wifi":"y","SMS":"y","OVS":"y","FTS":"y","BLA":"y","ZFS":"y","GDA":"y","BLP":"y","LTR":"y","KPS":"y","PGR":"y","WFS":"y","disabled":"y","status":"Open from 08:00 to 21:00","phoneNumber":"0219-166595700"},{"no":"1172","lat":"52.213116","lng":"6.861838","format":"IS","street":"Wethouder Nijhuisstraat","housenr":"164","zip":"7545 NM","city":"Enschede","wifi":"y","OVS":"y","FTS":"y","BLA":"y","GDA":"y","BLP":"y","LTR":"y","KPS":"y","PGR":"y","RCL":"y","disabled":"y","status":"Open from 08:00 to 21:00","phoneNumber":"0539-14325874"},{"no":"1173","lat":"52.094746","lng":"5.119732","format":"IS","street":"Voorstraat","housenr":"38","zip":"3512 AP","city":"Utrecht","wifi":"y","OVS":"y","FTS":"y","GDA":"y","LTR":"y","KPS":"y","PKB":"y","disabled":"y","status":"Open from 08:00 to 22:00","phoneNumber":"0319-162317609"},{"no":"1174","lat":"51.590001","lng":"4.82281","format":"IS","street":"Bisschopshoeve","housenr":"30","zip":"4817 PV","city":"Breda","wifi":"y","SMS":"y","OVS":"y","FTS":"y","BLA":"y","GDA":"y","LTR":"y","KPS":"y","PGR":"y","status":"Open from 08:00 to 20:00","phoneNumber":"0769-15877044"},{"no":"1175","lat":"51.341371","lng":"6.140439","format":"IS","street":"Raadhuislaan","housenr":"48","zip":"5931 NS","city":"Tegelen","wifi":"y","OVS":"y","FTS":"y","BLA":"y","GDA":"y","LTR":"y","KPS":"y","PGR":"y","status":"Open from 08:00 to 20:00","phoneNumber":"0779-13732224"},{"no":"1176","lat":"52.143599","lng":"5.045227","format":"IS","street":"Dr. Plesmanlaan","housenr":"138","zip":"3601 DE","city":"Maarssen","wifi":"y","OVS":"y","FTS":"y","BLA":"y","GDA":"y","BLP":"y","LTR":"y","KPS":"y","PBZ":"y","RCL":"y","disabled":"y","status":"Open from 08:00 to 21:00","phoneNumber":"03469-1561225"},{"no":"1177","lat":"52.034775","lng":"5.344038","format":"IS","street":"Dorpsstraat","housenr":"25","zip":"3941 JK","city":"Doorn","wifi":"y","OVS":"y","FTS":"y","BLA":"y","ZFS":"y","GDA":"y","BLP":"y","LTR":"y","KPS":"y","PBZ":"y","WFS":"y","disabled":"y","status":"Open from 08:00 to 21:00","phoneNumber":"03439-1412473"},{"no":"1178","lat":"51.831108","lng":"5.849855","format":"IS","street":"Groenestraat","housenr":"193","zip":"6531 HE","city":"Nijmegen","wifi":"y","OVS":"y","FTS":"y","GDA":"y","LTR":"y","KPS":"y","PGR":"y","disabled":"y","status":"Open from 08:00 to 21:00","phoneNumber":"0249-13567323"},{"no":"1179","lat":"51.489289","lng":"5.472738","format":"IS","street":"Ouverture","housenr":"214","zip":"5629 PX","city":"Eindhoven","wifi":"y","OVS":"y","FTS":"y","BLA":"y","GDA":"y","BLP":"y","LTR":"y","KPS":"y","PGR":"y","disabled":"y","status":"Open from 08:00 to 21:00","phoneNumber":"0419-162566777"},{"no":"1180","lat":"52.144875","lng":"4.674619","format":"IS","street":"Ridderhof","housenr":"2","zip":"2402 EN","city":"Alphen Aan Den Rijn","OVS":"y","FTS":"y","BLA":"y","GDA":"y","LTR":"y","KPS":"y","PKB":"y","status":"Open from 08:00 to 20:00","phoneNumber":"01729-1421676"},{"no":"1181","lat":"52.260459","lng":"5.609544","format":"IS","street":"Voorthuizerstraat","housenr":"2","zip":"3881 SH","city":"Putten","OVS":"y","FTS":"y","BLA":"y","GDA":"y","BLP":"y","LTR":"y","KPS":"y","PBZ":"y","status":"Open from 08:00 to 20:00","phoneNumber":"03419-1353850"},{"no":"1182","lat":"51.820457","lng":"4.404661","format":"IS","street":"Beijersehof","housenr":"19","zip":"3262 VR","city":"Oud9-1Beijerland","PSS":"y","OVS":"y","FTS":"y","BLA":"y","ZFS":"y","GDA":"y","BLP":"y","LTR":"y","KPS":"y","PGR":"y","WFS":"y","RCL":"y","status":"Open from 08:00 to 20:00","phoneNumber":"01869-1614666"},{"no":"1184","lat":"53.225352","lng":"6.528213","format":"IS","street":"Siersteenlaan","housenr":"464","zip":"9743 ES","city":"Groningen","wifi":"y","OVS":"y","FTS":"y","BLA":"y","GDA":"y","LTR":"y","KPS":"y","PGR":"y","status":"Open from 08:00 to 20:00","phoneNumber":"0519-165777200"},{"no":"1185","lat":"53.056657","lng":"4.797804","format":"IS","street":"Waalderstraat","housenr":"48","zip":"1791 EC","city":"Den Burg","wifi":"y","OVS":"y","FTS":"y","BLA":"y","GDA":"y","LTR":"y","KPS":"y","PKB":"y","status":"Open from 08:00 to 20:00","phoneNumber":"02229-1314964"},{"no":"1186","lat":"52.551011","lng":"4.674066","format":"IS","street":"Geesterduin","housenr":"27","zip":"1902 EJ","city":"Castricum","wifi":"y","PSS":"y","OVS":"y","FTS":"y","BLA":"y","ZFS":"y","GDA":"y","BLP":"y","LTR":"y","KPS":"y","PGR":"y","WFS":"y","disabled":"y","status":"Open from 08:00 to 21:00","phoneNumber":"02519-1650402"},{"no":"1187","lat":"51.462587","lng":"5.797824","format":"IS","street":"Wolfsberg","housenr":"20","zip":"5751 GX","city":"Deurne","OVS":"y","FTS":"y","BLA":"y","GDA":"y","HLA":"y","LTR":"y","KPS":"y","PKB":"y","status":"Open from 08:00 to 20:00","phoneNumber":"04939-1314824"},{"no":"1188","lat":"51.470476","lng":"5.49412","format":"IS","street":"Orionstraat","housenr":"149","zip":"5632 DC","city":"Eindhoven","SMS":"y","OVS":"y","FTS":"y","BLA":"y","GDA":"y","BLP":"y","LTR":"y","KPS":"y","PGR":"y","status":"Open from 08:00 to 20:00","phoneNumber":"0419-162418535"},{"no":"1189","lat":"51.584654","lng":"5.085731","format":"IS","street":"Wagnerplein","housenr":"52","zip":"5011 LR","city":"Tilburg","wifi":"y","OVS":"y","FTS":"y","BLA":"y","GDA":"y","HLA":"y","LTR":"y","KPS":"y","PGR":"y","status":"Open from 08:00 to 20:00","phoneNumber":"0139-14552975"},{"no":"1191","lat":"51.488608","lng":"5.667535","format":"IS","street":"Dijksestraat","housenr":"131","zip":"5701 AL","city":"Helmond","OVS":"y","FTS":"y","BLA":"y","GDA":"y","LTR":"y","KPS":"y","PGR":"y","disabled":"y","status":"Open from 08:00 to 21:00","phoneNumber":"04929-1539668"},{"no":"1192","lat":"51.422722","lng":"5.558636","format":"IS","street":"Heuvel","housenr":"81","zip":"5664 HN","city":"Geldrop","wifi":"y","OVS":"y","FTS":"y","BLA":"y","GDA":"y","BLP":"y","LTR":"y","KPS":"y","PKB":"y","status":"Open from 08:00 to 20:00","phoneNumber":"0419-162859005"},{"no":"1193","lat":"52.263212","lng":"6.819481","format":"IS","street":"Willem de Merodestraat","housenr":"10","zip":"7552 WZ","city":"Hengelo Ov","OVS":"y","FTS":"y","BLA":"y","GDA":"y","BLP":"y","LTR":"y","KPS":"y","PGR":"y","RCL":"y","disabled":"y","status":"Open from 08:00 to 21:00","phoneNumber":"0749-12423442"},{"no":"1194","lat":"50.850848","lng":"5.688521","format":"IS","street":"Helmstraat","housenr":"4","zip":"6211 TA","city":"Maastricht","wifi":"y","OVS":"y","FTS":"y","BLA":"y","GDA":"y","BLP":"y","LTR":"y","KPS":"y","PKB":"y","status":"Open from 09:00 to 15:00","phoneNumber":"0439-13101520"},{"no":"1195","lat":"52.261735","lng":"4.559406","format":"IS","street":"Blokhuis","housenr":"67","zip":"2161 EV","city":"Lisse","wifi":"y","OVS":"y","FTS":"y","BLA":"y","GDA":"y","BLP":"y","LTR":"y","KPS":"y","PBZ":"y","status":"Open from 08:00 to 20:00","phoneNumber":"02529-1414475"},{"no":"1196","lat":"52.014041","lng":"4.342811","format":"IS","street":"W.H. van Leeuwenlaan","housenr":"1","zip":"2613 ZE","city":"Delft","wifi":"y","OVS":"y","FTS":"y","BLA":"y","GDA":"y","BLP":"y","LTR":"y","KPS":"y","PGR":"y","status":"Open from 08:00 to 20:00","phoneNumber":"0159-12132850"},{"no":"1197","lat":"51.823128","lng":"4.652215","format":"IS","street":"Hof van Holland","housenr":"30","zip":"3332 EH","city":"Zwijndrecht","PSS":"y","OVS":"y","FTS":"y","BLA":"y","ZFS":"y","GDA":"y","BLP":"y","LTR":"y","KPS":"y","PDG":"y","WFS":"y","status":"Open from 08:00 to 20:00","phoneNumber":"0789-16121122"},{"no":"1198","lat":"51.710254","lng":"5.366156","format":"IS","street":"Molenhoekpassage","housenr":"5","zip":"5242 CZ","city":"Rosmalen","wifi":"y","OVS":"y","FTS":"y","BLA":"y","ZFS":"y","GDA":"y","LTR":"y","KPS":"y","PGR":"y","WFS":"y","status":"Open from 08:00 to 18:00","phoneNumber":"0739-15214323"},{"no":"1199","lat":"51.196341","lng":"5.994518","format":"IS","street":"Godsweerdersingel","housenr":"74","zip":"6041 GM","city":"Roermond","wifi":"y","PSS":"y","OVS":"y","FTS":"y","BLA":"y","GDA":"y","BLP":"y","LTR":"y","KPS":"y","PKB":"y","status":"Open from 08:00 to 18:00","phoneNumber":"04759-1332930"},{"no":"1201","lat":"51.356233","lng":"4.393594","format":"IS","street":"Antwerpsestraat","housenr":"9","zip":"4645 BA","city":"Putte","wifi":"y","OVS":"y","FTS":"y","BLA":"y","GDA":"y","LTR":"y","KPS":"y","PGR":"y","status":"Open from 08:00 to 20:00","phoneNumber":"01649-1602565"},{"no":"1202","lat":"51.689891","lng":"4.213089","format":"IS","street":"Dabbestraat","housenr":"2A","zip":"3255 XB","city":"Oude9-1Tonge","FTS":"y","BLA":"y","BLP":"y","LTR":"y","KPS":"y","PGR":"y","status":"Open from 08:00 to 20:00","phoneNumber":"01879-1641544"},{"no":"1204","lat":"52.017273","lng":"5.178089","format":"IS","street":"Cardo","housenr":"12","zip":"3995 XM","city":"Houten","wifi":"y","OVS":"y","FTS":"y","BLA":"y","ZFS":"y","GDA":"y","BLP":"y","LTR":"y","KPS":"y","PGR":"y","WFS":"y","RCL":"y","disabled":"y","status":"Open from 08:00 to 21:00","phoneNumber":"0319-166390411"},{"no":"1205","lat":"51.58055","lng":"5.19349","format":"IS","street":"Dorpsstraat","housenr":"34","zip":"5061 HL","city":"Oisterwijk","wifi":"y","OVS":"y","FTS":"y","BLA":"y","GDA":"y","BLP":"y","LTR":"y","KPS":"y","PKB":"y","status":"Open from 08:00 to 20:00","phoneNumber":"0139-15217027"},{"no":"1206","lat":"53.231991","lng":"6.569302","format":"IS","street":"Floresplein","housenr":"13","zip":"9715 HH","city":"Groningen","wifi":"y","OVS":"y","FTS":"y","BLA":"y","GDA":"y","BLP":"y","LTR":"y","KPS":"y","PGR":"y","status":"Open from 08:00 to 20:00","phoneNumber":"0519-165773999"},{"no":"1207","lat":"52.056644","lng":"4.468854","format":"IS","street":"Middelwaard","housenr":"93","zip":"2716 CW","city":"Zoetermeer","wifi":"y","PSS":"y","OVS":"y","FTS":"y","BLA":"y","GDA":"y","LTR":"y","KPS":"y","PGR":"y","status":"Open from 08:00 to 20:00","phoneNumber":"0799-13213340"},{"no":"1208","lat":"51.423335","lng":"5.462422","format":"IS","street":"Franz Leharplein","housenr":"19","zip":"5654 AZ","city":"Eindhoven","wifi":"y","OVS":"y","FTS":"y","BLA":"y","GDA":"y","BLP":"y","LTR":"y","KPS":"y","PGR":"y","RCL":"y","disabled":"y","status":"Open from 08:00 to 21:00","phoneNumber":"0419-162521500"},{"no":"1209","lat":"52.376342","lng":"5.780472","format":"IS","street":"Harderwijkerweg","housenr":"18","zip":"8071 GA","city":"Nunspeet","OVS":"y","FTS":"y","BLA":"y","GDA":"y","LTR":"y","KPS":"y","PBZ":"y","status":"Open from 08:00 to 20:00","phoneNumber":"03419-1252014"},{"no":"1210","lat":"52.129947","lng":"4.6644","format":"IS","street":"De Aarhof","housenr":"61","zip":"2406 BT","city":"Alphen Aan Den Rijn","OVS":"y","FTS":"y","BLA":"y","GDA":"y","LTR":"y","KPS":"y","PKB":"y","status":"Open from 08:00 to 20:00","phoneNumber":"01729-1491431"},{"no":"1211","lat":"52.348054","lng":"5.622617","format":"IS","street":"Selhorstweg","housenr":"2","zip":"3841 GL","city":"Harderwijk","PSS":"y","OVS":"y","FTS":"y","BLA":"y","GDA":"y","LTR":"y","KPS":"y","PKB":"y","status":"Open from 08:00 to 20:00","phoneNumber":"03419-1415202"},{"no":"1212","lat":"51.922249","lng":"4.493825","format":"IS","street":"Groenendaal","housenr":"499-155","zip":"3011 SN","city":"Rotterdam","wifi":"y","OVS":"y","FTS":"y","BLA":"y","GDA":"y","LTR":"y","KPS":"y","PKB":"y","disabled":"y","status":"Open from 08:00 to 21:00","phoneNumber":"0119-164128793"},{"no":"1213","lat":"52.206561","lng":"4.865796","format":"IS","street":"De Passage","housenr":"26","zip":"3641 AK","city":"Mijdrecht","wifi":"y","OVS":"y","FTS":"y","BLA":"y","ZFS":"y","GDA":"y","BLP":"y","LTR":"y","KPS":"y","PBZ":"y","WFS":"y","status":"Open from 08:00 to 20:00","phoneNumber":"02979-1281294"},{"no":"1214","lat":"52.083405","lng":"5.219196","format":"IS","street":"De Clomp","housenr":"3132","zip":"3704 KA","city":"Zeist","wifi":"y","OVS":"y","FTS":"y","BLA":"y","GDA":"y","LTR":"y","KPS":"y","PGR":"y","disabled":"y","status":"Open from 08:00 to 21:00","phoneNumber":"0319-166955421"},{"no":"1215","lat":"52.176453","lng":"4.505619","format":"IS","street":"Kopermolen","housenr":"44","zip":"2317 PB","city":"Leiden","wifi":"y","OVS":"y","FTS":"y","BLA":"y","GDA":"y","LTR":"y","KPS":"y","PGR":"y","status":"Open from 08:00 to 20:00","phoneNumber":"0719-15220045"},{"no":"1216","lat":"52.092151","lng":"4.356914","format":"IS","street":"Het Kleine Loo","housenr":"342","zip":"2592 CK","city":"'S9-1Gravenhage","wifi":"y","OVS":"y","FTS":"y","BLA":"y","GDA":"y","BLP":"y","HLA":"y","LTR":"y","KPS":"y","PGR":"y","disabled":"y","status":"Open from 08:00 to 21:00","phoneNumber":"0719-163836197"},{"no":"1217","lat":"52.605918","lng":"4.711751","format":"IS","street":"'t Loo","housenr":"61","zip":"1851 HT","city":"Heiloo","FTS":"y","BLA":"y","ZFS":"y","GDA":"y","BLP":"y","LTR":"y","KPS":"y","PBZ":"y","WFS":"y","disabled":"y","status":"Open from 08:00 to 21:00","phoneNumber":"0729-15335540"},{"no":"1219","lat":"51.713379","lng":"5.313498","format":"IS","street":"Rompertpassage","housenr":"45","zip":"5233 AP","city":"'S9-1Hertogenbosch","wifi":"y","PSS":"y","OVS":"y","FTS":"y","BLA":"y","GDA":"y","LTR":"y","KPS":"y","PGR":"y","status":"Open from 08:00 to 18:00","phoneNumber":"0739-16415906"},{"no":"1220","lat":"52.529879","lng":"6.101644","format":"IS","street":"Dobbe","housenr":"61","zip":"8032 JX","city":"Zwolle","wifi":"y","OVS":"y","FTS":"y","GDA":"y","BLP":"y","LTR":"y","KPS":"y","PGR":"y","disabled":"y","status":"Open from 08:00 to 21:00","phoneNumber":"0389-14540034"},{"no":"1221","lat":"51.931346","lng":"6.078117","format":"IS","street":"Kampsingel","housenr":"2","zip":"6901 JE","city":"Zevenaar","wifi":"y","SMS":"y","PSS":"y","OVS":"y","FTS":"y","BLA":"y","ZFS":"y","GDA":"y","LTR":"y","KPS":"y","PKB":"y","WFS":"y","disabled":"y","status":"Open from 08:00 to 21:00","phoneNumber":"03169-1525736"},{"no":"1222","lat":"51.75366","lng":"5.51202","format":"IS","street":"Sterrebos","housenr":"2","zip":"5344 AM","city":"Oss","wifi":"y","OVS":"y","FTS":"y","BLA":"y","ZFS":"y","GDA":"y","BLP":"y","LTR":"y","KPS":"y","PGR":"y","WFS":"y","status":"Open from 08:00 to 20:00","phoneNumber":"04129-1631147"},{"no":"1224","lat":"51.935683","lng":"4.603059","format":"IS","street":"Amsteldiep","housenr":"45","zip":"2904 EB","city":"Capelle Aan Den Ijssel","OVS":"y","FTS":"y","BLA":"y","GDA":"y","BLP":"y","LTR":"y","KPS":"y","PGR":"y","status":"Open from 08:00 to 20:00","phoneNumber":"0119-164515542"},{"no":"1225","lat":"51.935068","lng":"4.37613","format":"IS","street":"Hof van Spaland","housenr":"1","zip":"3121 CA","city":"Schiedam","wifi":"y","SMS":"y","PSS":"y","OVS":"y","FTS":"y","BLA":"y","GDA":"y","LTR":"y","KPS":"y","PGR":"y","status":"Open from 08:00 to 20:00","phoneNumber":"0119-164710047"},{"no":"1226","lat":"52.080545","lng":"4.26788","format":"IS","street":"Fahrenheitstraat","housenr":"709","zip":"2561 DE","city":"'S9-1Gravenhage","wifi":"y","OVS":"y","FTS":"y","ZFS":"y","GDA":"y","BLP":"y","LTR":"y","KPS":"y","PGR":"y","WFS":"y","disabled":"y","status":"Open from 08:00 to 22:00","phoneNumber":"0719-163637999"},{"no":"1227","lat":"52.193704","lng":"6.900789","format":"IS","street":"Veldhoflanden","housenr":"2","zip":"7542 LA","city":"Enschede","wifi":"y","OVS":"y","FTS":"y","BLA":"y","GDA":"y","BLP":"y","LTR":"y","KPS":"y","PGR":"y","status":"Open from 08:00 to 20:00","phoneNumber":"0539-14768930"},{"no":"1229","lat":"52.356775","lng":"6.661183","format":"IS","street":"Rosa Luxemburgstraat","housenr":"1","zip":"7607 SM","city":"Almelo","PSS":"y","OVS":"y","FTS":"y","BLA":"y","GDA":"y","LTR":"y","KPS":"y","GGG":"y","PKB":"y","status":"Open from 08:00 to 20:00","phoneNumber":"05469-1823375"},{"no":"1230","lat":"51.888407","lng":"4.491634","format":"IS","street":"Zuidplein","housenr":"622","zip":"3083 CX","city":"Rotterdam","wifi":"y","PSS":"y","OVS":"y","FTS":"y","BLA":"y","GDA":"y","HLA":"y","LTR":"y","KPS":"y","PKB":"y","status":"Open from 08:00 to 20:00","phoneNumber":"0119-164815533"},{"no":"1232","lat":"52.301921","lng":"4.663765","format":"IS","street":"Markenburg","housenr":"99","zip":"2135 DS","city":"Hoofddorp","wifi":"y","OVS":"y","FTS":"y","BLA":"y","GDA":"y","BLP":"y","LTR":"y","KPS":"y","PGR":"y","status":"Open from 08:00 to 20:00","phoneNumber":"0239-15625213"},{"no":"1235","lat":"52.517765","lng":"5.460422","format":"IS","street":"Kempenaar 039-1","housenr":"41","zip":"8242 BD","city":"Lelystad","wifi":"y","SMS":"y","OVS":"y","FTS":"y","BLA":"y","ZFS":"y","GDA":"y","LTR":"y","KPS":"y","PGR":"y","disabled":"y","status":"Open from 08:00 to 21:00","phoneNumber":"03219-16222444"},{"no":"1236","lat":"53.216936","lng":"6.563247","format":"IS","street":"Akerkhof","housenr":"1","zip":"9712 BA","city":"Groningen","wifi":"y","OVS":"y","FTS":"y","GDA":"y","BLP":"y","LTR":"y","KPS":"y","disabled":"y","status":"Open from 08:00 to 21:45","phoneNumber":"0519-163604025"},{"no":"1237","lat":"53.199403","lng":"5.791915","format":"IS","street":"Prins Hendrikstraat","housenr":"2a","zip":"8911 BK","city":"Leeuwarden","OVS":"y","GDA":"y","KPS":"y","PKB":"y","disabled":"y","status":"Open from 08:00 to 21:00","phoneNumber":"0589-12137071"},{"no":"1238","lat":"51.623463","lng":"4.743399","format":"IS","street":"Heksenwaag","housenr":"2","zip":"4823 JV","city":"Breda","wifi":"y","OVS":"y","FTS":"y","BLA":"y","GDA":"y","LTR":"y","KPS":"y","PGR":"y","status":"Open from 08:00 to 20:00","phoneNumber":"0769-15424217"},{"no":"1239","lat":"52.064176","lng":"4.514945","format":"IS","street":"Petuniatuin","housenr":"12","zip":"2724 NA","city":"Zoetermeer","wifi":"y","PSS":"y","OVS":"y","FTS":"y","BLA":"y","GDA":"y","BLP":"y","HLA":"y","LTR":"y","KPS":"y","PGR":"y","status":"Open from 08:00 to 20:00","phoneNumber":"0799-13411715"},{"no":"1242","lat":"52.284567","lng":"6.829327","format":"IS","street":"Christiaan Langefeldstr","housenr":"83","zip":"7558 CZ","city":"Hengelo Ov","SMS":"y","OVS":"y","FTS":"y","BLA":"y","GDA":"y","LTR":"y","KPS":"y","PGR":"y","disabled":"y","status":"Open from 08:00 to 21:00","phoneNumber":"0749-12773737"},{"no":"1243","lat":"53.216434","lng":"6.560359","format":"IS","street":"Brugstraat","housenr":"14","zip":"9711 HX","city":"Groningen","wifi":"y","OVS":"y","FTS":"y","BLA":"y","GDA":"y","BLP":"y","LTR":"y","KPS":"y","disabled":"y","status":"Open from 08:00 to 22:00","phoneNumber":"0519-163131800"},{"no":"1244","lat":"52.296286","lng":"5.162424","format":"IS","street":"Marktstraat","housenr":"21","zip":"1411 CX","city":"Naarden","KPS":"y","PBZ":"y","status":"Open from 08:00 to 20:00","phoneNumber":"0359-16944415"},{"no":"1246","lat":"52.071409","lng":"4.494194","format":"IS","street":"Broekwegzijde","housenr":"150","zip":"2725 PE","city":"Zoetermeer","wifi":"y","OVS":"y","FTS":"y","BLA":"y","ZFS":"y","GDA":"y","BLP":"y","LTR":"y","KPS":"y","PGR":"y","WFS":"y","status":"Open from 08:00 to 20:00","phoneNumber":"0799-13413214"},{"no":"1247","lat":"52.134972","lng":"5.030599","format":"IS","street":"Bisonspoor","housenr":"1078","zip":"3605 KJ","city":"Maarssen","wifi":"y","PSS":"y","OVS":"y","FTS":"y","BLA":"y","ZFS":"y","GDA":"y","BLP":"y","LTR":"y","KPS":"y","PGR":"y","WFS":"y","RCL":"y","disabled":"y","status":"Open from 08:00 to 21:00","phoneNumber":"03469-1569960"},{"no":"1248","lat":"52.128268","lng":"5.20987","format":"IS","street":"De Kwinkelier","housenr":"30","zip":"3722 AR","city":"Bilthoven","PSS":"y","OVS":"y","FTS":"y","BLA":"y","GDA":"y","LTR":"y","KPS":"y","PGR":"y","status":"Open from 08:00 to 20:00","phoneNumber":"0319-162292665"},{"no":"1249","lat":"52.065031","lng":"5.136666","format":"IS","street":"Hondsrug","housenr":"60","zip":"3524 BR","city":"Utrecht","wifi":"y","SMS":"y","OVS":"y","FTS":"y","BLA":"y","GDA":"y","LTR":"y","KPS":"y","PGR":"y","disabled":"y","status":"Open from 08:00 to 21:00","phoneNumber":"0319-162894866"},{"no":"1250","lat":"51.477102","lng":"5.493041","format":"IS","street":"Tarwelaan","housenr":"70","zip":"5632 KG","city":"Eindhoven","wifi":"y","OVS":"y","FTS":"y","BLA":"y","GDA":"y","BLP":"y","HLA":"y","LTR":"y","KPS":"y","PGR":"y","disabled":"y","status":"Open from 08:00 to 21:00","phoneNumber":"0419-162411872"},{"no":"1251","lat":"52.482395","lng":"4.659611","format":"IS","street":"Beverhof","housenr":"41","zip":"1941 EC","city":"Beverwijk","PSS":"y","OVS":"y","FTS":"y","BLA":"y","GDA":"y","LTR":"y","KPS":"y","PKB":"y","status":"Open from 08:00 to 20:00","phoneNumber":"02519-1210641"},{"no":"1252","lat":"51.482815","lng":"5.13783","format":"IS","street":"Gelderstraat","housenr":"52","zip":"5081 AC","city":"Hilvarenbeek","wifi":"y","OVS":"y","FTS":"y","BLA":"y","GDA":"y","BLP":"y","LTR":"y","KPS":"y","PGR":"y","RCL":"y","status":"Open from 08:00 to 20:00","phoneNumber":"0139-15051402"},{"no":"1253","lat":"52.271245","lng":"4.619621","format":"IS","street":"Handelplein","housenr":"185","zip":"2151 NN","city":"Nieuw9-1Vennep","wifi":"y","SMS":"y","PSS":"y","OVS":"y","FTS":"y","BLA":"y","ZFS":"y","GDA":"y","LTR":"y","KPS":"y","PGR":"y","disabled":"y","status":"Open from 08:00 to 21:00","phoneNumber":"02529-1622111"},{"no":"1254","lat":"52.029328","lng":"5.532367","format":"IS","street":"Veenslag","housenr":"7","zip":"3905 SH","city":"Veenendaal","OVS":"y","FTS":"y","BLA":"y","ZFS":"y","GDA":"y","LTR":"y","KPS":"y","PBZ":"y","WFS":"y","status":"Open from 08:00 to 20:00","phoneNumber":"03189-1522535"},{"no":"1255","lat":"51.413778","lng":"5.542792","format":"IS","street":"Laan van Tolkien","housenr":"220","zip":"5663 SC","city":"Geldrop","OVS":"y","FTS":"y","BLA":"y","GDA":"y","LTR":"y","KPS":"y","PGR":"y","status":"Open from 08:00 to 20:00","phoneNumber":"0419-162862143"},{"no":"1256","lat":"51.472836","lng":"5.545784","format":"IS","street":"Parkstraat","housenr":"22","zip":"5671 GG","city":"Nuenen","wifi":"y","OVS":"y","FTS":"y","BLA":"y","GDA":"y","LTR":"y","KPS":"y","PGR":"y","status":"Open from 08:00 to 20:00","phoneNumber":"0419-162832012"},{"no":"1259","lat":"53.034068","lng":"5.655403","format":"IS","street":"Sint Antoniusplein","housenr":"35","zip":"8601 HK","city":"Sneek","wifi":"y","PSS":"y","OVS":"y","FTS":"y","BLA":"y","GDA":"y","BLP":"y","LTR":"y","KPS":"y","PKB":"y","disabled":"y","status":"Open from 08:00 to 22:00","phoneNumber":"05159-1423335"},{"no":"1260","lat":"51.50329","lng":"3.887064","format":"IS","street":"Kolveniershof","housenr":"44","zip":"4461 DB","city":"Goes","PSS":"y","OVS":"y","FTS":"y","BLA":"y","GDA":"y","LTR":"y","KPS":"y","PKB":"y","status":"Open from 08:00 to 20:00","phoneNumber":"01139-1230158"},{"no":"1261","lat":"52.196021","lng":"6.005795","format":"IS","street":"De Eglantier","housenr":"234","zip":"7329 DH","city":"Apeldoorn","wifi":"y","OVS":"y","FTS":"y","BLA":"y","GDA":"y","LTR":"y","KPS":"y","PGR":"y","status":"Open from 08:00 to 20:00","phoneNumber":"0559-15422411"},{"no":"1262","lat":"52.438425","lng":"4.81704","format":"IS","street":"Hermitage","housenr":"4","zip":"1506 TX","city":"Zaandam","wifi":"y","PSS":"y","OVS":"y","FTS":"y","BLA":"y","GDA":"y","BLP":"y","LTR":"y","KPS":"y","GGG":"y","PDG":"y","disabled":"y","status":"Open from 08:00 to 21:00","phoneNumber":"0759-16312870"},{"no":"1263","lat":"51.91143","lng":"4.477834","format":"IS","street":"Vasteland","housenr":"108","zip":"3011 BP","city":"Rotterdam","SMS":"y","OVS":"y","FTS":"y","BLA":"y","LTR":"y","KPS":"y","PKB":"y","status":"Open from 08:00 to 20:00","phoneNumber":"0119-164135550"},{"no":"1264","lat":"51.487336","lng":"4.279809","format":"IS","street":"Markiezaatsweg","housenr":"3","zip":"4615 PA","city":"Bergen Op Zoom","wifi":"y","SMS":"y","OVS":"y","BLA":"y","ZFS":"y","GDA":"y","LTR":"y","KPS":"y","PKB":"y","status":"Open from 08:00 to 20:00","phoneNumber":"01649-1241440"},{"no":"1265","lat":"51.659377","lng":"4.863181","format":"IS","street":"Arkendonk","housenr":"53","zip":"4907 XP","city":"Oosterhout Nb","wifi":"y","SMS":"y","OVS":"y","FTS":"y","BLA":"y","GDA":"y","LTR":"y","KPS":"y","PGR":"y","status":"Open from 08:00 to 20:00","phoneNumber":"01629-1460916"},{"no":"1266","lat":"52.054483","lng":"5.287018","format":"IS","street":"Binnenhof","housenr":"1","zip":"3971 EE","city":"Driebergen9-1Rijsenburg","wifi":"y","OVS":"y","FTS":"y","BLA":"y","GDA":"y","BLP":"y","LTR":"y","KPS":"y","PGR":"y","status":"Open from 08:00 to 20:00","phoneNumber":"03439-1512145"},{"no":"1267","lat":"51.523617","lng":"5.973713","format":"IS","street":"De Gouden Leeuw","housenr":"8","zip":"5801 BX","city":"Venray","wifi":"y","SMS":"y","BLP":"y","WFS":"y","status":"Open from 08:00 to 20:00","phoneNumber":"04789-1589575"},{"no":"1268","lat":"52.044186","lng":"5.671095","format":"IS","street":"Achterdoelen","housenr":"41","zip":"6711 AV","city":"Ede Gld","PSS":"y","OVS":"y","FTS":"y","BLA":"y","GDA":"y","LTR":"y","KPS":"y","PKB":"y","status":"Open from 08:00 to 20:00","phoneNumber":"03189-1614244"},{"no":"1269","lat":"52.64946","lng":"4.825971","format":"IS","street":"A C op 't Landtplantsoen","housenr":"11","zip":"1705 GS","city":"Heerhugowaard","wifi":"y","PSS":"y","OVS":"y","FTS":"y","BLA":"y","GDA":"y","LTR":"y","KPS":"y","PGR":"y","disabled":"y","status":"Open from 08:00 to 21:00","phoneNumber":"0729-15718307"},{"no":"1271","lat":"51.420724","lng":"5.406116","format":"IS","street":"Meiveld","housenr":"8","zip":"5501 KA","city":"Veldhoven","wifi":"y","PSS":"y","OVS":"y","FTS":"y","BLA":"y","GDA":"y","LTR":"y","KPS":"y","PDG":"y","status":"Open from 08:00 to 20:00","phoneNumber":"0419-162542787"},{"no":"1273","lat":"51.968138","lng":"4.617671","format":"IS","street":"Reigerhof","housenr":"150","zip":"2914 KE","city":"Nieuwerkerk Ad Ijssel","wifi":"y","PSS":"y","OVS":"y","FTS":"y","BLA":"y","ZFS":"y","GDA":"y","BLP":"y","LTR":"y","KPS":"y","PBZ":"y","WFS":"y","status":"Open from 08:00 to 20:00","phoneNumber":"01819-16318573"},{"no":"1274","lat":"52.031899","lng":"4.7047","format":"IS","street":"Lekkenburg","housenr":"3","zip":"2804 XA","city":"Gouda","wifi":"y","FTS":"y","BLA":"y","ZFS":"y","GDA":"y","BLP":"y","HLA":"y","LTR":"y","KPS":"y","PGR":"y","WFS":"y","status":"Open from 08:00 to 20:00","phoneNumber":"01829-1536539"},{"no":"1275","lat":"52.394558","lng":"5.280799","format":"IS","street":"Rio de Janeiroplein","housenr":"1","zip":"1334 HE","city":"Almere","wifi":"y","PSS":"y","OVS":"y","FTS":"y","BLA":"y","ZFS":"y","GDA":"y","BLP":"y","HLA":"y","LTR":"y","KPS":"y","PGR":"y","WFS":"y","disabled":"y","status":"Open from 08:00 to 21:00","phoneNumber":"0369-15321327"},{"no":"1276","lat":"52.381849","lng":"4.855705","format":"IS","street":"Bos en Lommerweg","housenr":"117","zip":"1055 DR","city":"Amsterdam","wifi":"y","OVS":"y","GDA":"y","BLP":"y","HLA":"y","KPS":"y","PKB":"y","WFS":"y","disabled":"y","status":"Open from 08:00 to 22:00","phoneNumber":"0219-164868080"},{"no":"1277","lat":"51.953535","lng":"4.58449","format":"IS","street":"Picassopassage","housenr":"38","zip":"2907 ME","city":"Capelle Aan Den Ijssel","OVS":"y","FTS":"y","BLA":"y","GDA":"y","BLP":"y","LTR":"y","KPS":"y","PGR":"y","status":"Open from 08:00 to 20:00","phoneNumber":"0119-164583769"},{"no":"1278","lat":"51.511927","lng":"5.394052","format":"IS","street":"Boterhoek","housenr":"17","zip":"5683 AS","city":"Best","PSS":"y","OVS":"y","FTS":"y","BLA":"y","GDA":"y","BLP":"y","LTR":"y","KPS":"y","PBZ":"y","status":"Open from 08:00 to 20:00","phoneNumber":"04999-1390109"},{"no":"1279","lat":"52.330365","lng":"5.541457","format":"IS","street":"Kerkstraat","housenr":"26","zip":"3891 ET","city":"Zeewolde","OVS":"y","FTS":"y","BLA":"y","GDA":"y","LTR":"y","KPS":"y","PGR":"y","status":"Open from 08:00 to 20:00","phoneNumber":"0369-15221179"},{"no":"1280","lat":"53.33269","lng":"6.92839","format":"IS","street":"Willemstraat","housenr":"26","zip":"9934 BC","city":"Delfzijl","OVS":"y","FTS":"y","BLA":"y","GDA":"y","LTR":"y","KPS":"y","PGR":"y","status":"Open from 08:00 to 20:00","phoneNumber":"05969-1610622"},{"no":"1282","lat":"52.374979","lng":"4.861059","format":"IS","street":"Jan van Galenstraat","housenr":"87","zip":"1056 BJ","city":"Amsterdam","wifi":"y","OVS":"y","FTS":"y","BLA":"y","GDA":"y","BLP":"y","HLA":"y","LTR":"y","KPS":"y","PKB":"y","WFS":"y","RCL":"y","disabled":"y","status":"Open from 08:00 to 22:00","phoneNumber":"0219-166162098"},{"no":"1283","lat":"52.117619","lng":"6.524904","format":"IS","street":"Lichtenhorst","housenr":"19-13","zip":"7271 AE","city":"Borculo","wifi":"y","SMS":"y","OVS":"y","FTS":"y","BLA":"y","GDA":"y","LTR":"y","KPS":"y","PGR":"y","status":"Open from 08:00 to 20:00","phoneNumber":"05459-1271035"},{"no":"1284","lat":"52.417387","lng":"4.892918","format":"IS","street":"Molenwijk","housenr":"35","zip":"1035 EG","city":"Amsterdam","wifi":"y","OVS":"y","BLA":"y","GDA":"y","BLP":"y","HLA":"y","LTR":"y","KPS":"y","PBZ":"y","WFS":"y","RCL":"y","status":"Open from 08:00 to 20:00","phoneNumber":"0219-166313045"},{"no":"1286","lat":"51.825715","lng":"4.833286","format":"IS","street":"Talmastraat","housenr":"16","zip":"3371 VG","city":"Hardinxveld9-1Giessendam","FTS":"y","BLA":"y","GDA":"y","BLP":"y","LTR":"y","KPS":"y","GGG":"y","PBZ":"y","status":"Open from 08:00 to 20:00","phoneNumber":"01849-1630555"},{"no":"1287","lat":"52.094358","lng":"4.277079","format":"IS","street":"Frederik Hendriklaan","housenr":"80","zip":"2582 BE","city":"'S9-1Gravenhage","wifi":"y","OVS":"y","FTS":"y","ZFS":"y","GDA":"y","BLP":"y","LTR":"y","KPS":"y","PKB":"y","WFS":"y","disabled":"y","status":"Open from 08:00 to 22:00","phoneNumber":"0719-163551644"},{"no":"1288","lat":"52.215614","lng":"5.167704","format":"IS","street":"Gijsbrecht van Amstelstr","housenr":"177","zip":"1214 AX","city":"Hilversum","OVS":"y","KPS":"y","PKB":"y","status":"Open from 08:00 to 20:00","phoneNumber":"0359-16249987"},{"no":"1289","lat":"52.364266","lng":"4.855049","format":"IS","street":"Postjesweg","housenr":"65","zip":"1057 DW","city":"Amsterdam","wifi":"y","OVS":"y","FTS":"y","BLA":"y","GDA":"y","BLP":"y","HLA":"y","LTR":"y","KPS":"y","PKB":"y","disabled":"y","status":"Open from 08:00 to 22:00","phoneNumber":"0219-166832523"},{"no":"1290","lat":"52.062344","lng":"4.269909","format":"IS","street":"Escamplaan","housenr":"281","zip":"2547 EA","city":"'S9-1Gravenhage","wifi":"y","OVS":"y","FTS":"y","BLA":"y","GDA":"y","BLP":"y","LTR":"y","KPS":"y","PGR":"y","status":"Open from 08:00 to 20:00","phoneNumber":"0719-163254564"},{"no":"1291","lat":"51.971796","lng":"5.728239","format":"IS","street":"Dorpsstraat","housenr":"118","zip":"6871 AR","city":"Renkum","wifi":"y","FTS":"y","GDA":"y","LTR":"y","KPS":"y","PBZ":"y","WFS":"y","status":"Open from 08:00 to 20:00","phoneNumber":"03179-1318034"},{"no":"1294","lat":"52.089336","lng":"5.112906","format":"IS","street":"Godebaldkwartier","housenr":"149","zip":"3511 DP","city":"Utrecht","wifi":"y","OVS":"y","FTS":"y","GDA":"y","BLP":"y","LTR":"y","KPS":"y","PKB":"y","disabled":"y","status":"Open from 07:00 to 21:00","phoneNumber":"0319-162318920"},{"no":"1295","lat":"52.53393","lng":"6.055623","format":"IS","street":"Wade","housenr":"10","zip":"8043 LS","city":"Zwolle","SMS":"y","OVS":"y","FTS":"y","BLA":"y","GDA":"y","LTR":"y","KPS":"y","PGR":"y","disabled":"y","status":"Open from 08:00 to 21:00","phoneNumber":"0389-14200531"},{"no":"1296","lat":"53.144461","lng":"6.268703","format":"IS","street":"Wendtsteinweg","housenr":"64","zip":"9363 AR","city":"Marum","OVS":"y","FTS":"y","BLA":"y","LTR":"y","KPS":"y","GGG":"y","PGR":"y","disabled":"y","status":"Open from 08:00 to 21:00","phoneNumber":"05949-1641379"},{"no":"1298","lat":"52.09045","lng":"4.32018","format":"IS","street":"Weissenbruchstraat","housenr":"116","zip":"2596 GK","city":"'S9-1Gravenhage","wifi":"y","FTS":"y","KPS":"y","PKB":"y","disabled":"y","status":"Open from 08:00 to 21:00","phoneNumber":"0719-163249259"},{"no":"1300","lat":"52.054975","lng":"4.250292","format":"IS","street":"Hildo Kroplaan","housenr":"20","zip":"2552 XS","city":"'S9-1Gravenhage","wifi":"y","PSS":"y","OVS":"y","FTS":"y","GDA":"y","BLP":"y","LTR":"y","KPS":"y","PGR":"y","disabled":"y","status":"Open from 08:00 to 21:00","phoneNumber":"0719-163971442"},{"no":"1301","lat":"51.918223","lng":"4.400494","format":"IS","street":"Lange Kerkstraat","housenr":"34","zip":"3111 NP","city":"Schiedam","wifi":"y","PSS":"y","OVS":"y","FTS":"y","BLA":"y","GDA":"y","BLP":"y","HLA":"y","LTR":"y","KPS":"y","PKB":"y","status":"Open from 08:00 to 20:00","phoneNumber":"0119-164264990"},{"no":"1302","lat":"52.353832","lng":"4.869397","format":"IS","street":"Johannes Verhulststraat","housenr":"149","zip":"1071 NB","city":"Amsterdam","wifi":"y","OVS":"y","BLP":"y","PKB":"y","disabled":"y","status":"Open from 08:00 to 22:00","phoneNumber":"0219-166625203"},{"no":"1303","lat":"51.879469","lng":"5.837613","format":"IS","street":"Jonagoldstraat","housenr":"57","zip":"6515 EN","city":"Nijmegen","wifi":"y","PSS":"y","OVS":"y","FTS":"y","BLA":"y","GDA":"y","BLP":"y","LTR":"y","KPS":"y","PGR":"y","status":"Open from 08:00 to 20:00","phoneNumber":"0249-13482200"},{"no":"1304","lat":"51.531121","lng":"4.453111","format":"IS","street":"Laan van Brabant","housenr":"9","zip":"4701 BM","city":"Roosendaal","PSS":"y","OVS":"y","BLA":"y","GDA":"y","LTR":"y","KPS":"y","PKB":"y","status":"Open from 08:00 to 18:00","phoneNumber":"01659-1534337"},{"no":"1305","lat":"51.521214","lng":"5.068924","format":"IS","street":"De Hovel","housenr":"19","zip":"5051 NP","city":"Goirle","wifi":"y","FTS":"y","BLA":"y","ZFS":"y","GDA":"y","BLP":"y","LTR":"y","KPS":"y","PBZ":"y","WFS":"y","status":"Open from 08:00 to 20:00","phoneNumber":"0139-15346428"},{"no":"1308","lat":"53.19752","lng":"6.578568","format":"IS","street":"Helperplein","housenr":"4","zip":"9721 CX","city":"Groningen","wifi":"y","OVS":"y","FTS":"y","BLA":"y","ZFS":"y","GDA":"y","LTR":"y","KPS":"y","PGR":"y","WFS":"y","disabled":"y","status":"Open from 08:00 to 22:00","phoneNumber":"0519-165262271"},{"no":"1310","lat":"52.618702","lng":"4.647426","format":"IS","street":"Nieuwe Egmonderstraatweg","housenr":"11","zip":"1934 PA","city":"Egmond Aan Den Hoef","wifi":"y","OVS":"y","FTS":"y","BLA":"y","GDA":"y","LTR":"y","KPS":"y","PBZ":"y","status":"Open from 08:00 to 20:00","phoneNumber":"0729-15065242"},{"no":"1311","lat":"52.08313","lng":"5.12304","format":"IS","street":"Twijnstraat","housenr":"8","zip":"3511 ZK","city":"Utrecht","wifi":"y","FTS":"y","BLA":"y","LTR":"y","KPS":"y","PKB":"y","disabled":"y","status":"Open from 08:00 to 22:00","phoneNumber":"0319-162311041"},{"no":"1312","lat":"52.232598","lng":"5.191524","format":"IS","street":"Seinstraat","housenr":"13","zip":"1223 DE","city":"Hilversum","wifi":"y","OVS":"y","FTS":"y","BLA":"y","ZFS":"y","GDA":"y","BLP":"y","LTR":"y","KPS":"y","PGR":"y","WFS":"y","disabled":"y","status":"Open from 08:00 to 21:00","phoneNumber":"0359-16853058"},{"no":"1314","lat":"52.372834","lng":"4.89944","format":"IS","street":"Nieuwmarkt","housenr":"18","zip":"1012 CR","city":"Amsterdam","wifi":"y","OVS":"y","GDA":"y","LTR":"y","KPS":"y","PKB":"y","WFS":"y","disabled":"y","status":"Open from 08:00 to 22:00","phoneNumber":"0219-166232461"},{"no":"1315","lat":"52.354842","lng":"4.919952","format":"IS","street":"Krugerplein","housenr":"3","zip":"1092 JZ","city":"Amsterdam","wifi":"y","OVS":"y","BLA":"y","GDA":"y","BLP":"y","HLA":"y","LTR":"y","KPS":"y","PKB":"y","WFS":"y","disabled":"y","status":"Open from 08:00 to 22:00","phoneNumber":"0219-166657381"},{"no":"1316","lat":"52.086577","lng":"5.085741","format":"IS","street":"Handelstraat","housenr":"63","zip":"3533 GJ","city":"Utrecht","wifi":"y","SMS":"y","OVS":"y","FTS":"y","GDA":"y","KPS":"y","PGR":"y","disabled":"y","status":"Open from 08:00 to 21:00","phoneNumber":"0319-162933094"},{"no":"1317","lat":"52.151716","lng":"5.405307","format":"IS","street":"Euterpeplein","housenr":"43","zip":"3816 NR","city":"Amersfoort","OVS":"y","BLA":"y","GDA":"y","BLP":"y","HLA":"y","LTR":"y","KPS":"y","PBZ":"y","WFS":"y","status":"Open from 08:00 to 20:00","phoneNumber":"0339-14721952"},{"no":"1318","lat":"52.346041","lng":"4.863383","format":"IS","street":"Stadionweg","housenr":"159","zip":"1076 NN","city":"Amsterdam","wifi":"y","OVS":"y","FTS":"y","BLA":"y","GDA":"y","BLP":"y","LTR":"y","KPS":"y","PKB":"y","disabled":"y","status":"Open from 08:00 to 22:00","phoneNumber":"0219-166790343"},{"no":"1319","lat":"52.017316","lng":"5.039022","format":"IS","street":"Basiliekpad","housenr":"4","zip":"3401 BJ","city":"Ijsselstein Ut","wifi":"y","OVS":"y","FTS":"y","BLA":"y","ZFS":"y","GDA":"y","BLP":"y","LTR":"y","KPS":"y","PKB":"y","WFS":"y","disabled":"y","status":"Open from 08:00 to 21:00","phoneNumber":"0319-166886416"},{"no":"1320","lat":"52.091861","lng":"5.103565","format":"IS","street":"Damstraat","housenr":"37","zip":"3531 BS","city":"Utrecht","wifi":"y","SMS":"y","OVS":"y","FTS":"y","BLA":"y","GDA":"y","BLP":"y","LTR":"y","KPS":"y","PKB":"y","WFS":"y","disabled":"y","status":"Open from 08:00 to 21:00","phoneNumber":"0319-162949487"},{"no":"1321","lat":"52.366551","lng":"4.924116","format":"IS","street":"Sarphatistraat","housenr":"670","zip":"1018 AV","city":"Amsterdam","wifi":"y","OVS":"y","FTS":"y","BLA":"y","GDA":"y","LTR":"y","KPS":"y","PKB":"y","WFS":"y","disabled":"y","status":"Open from 08:00 to 22:00","phoneNumber":"0219-164221233"},{"no":"1322","lat":"52.089395","lng":"5.135552","format":"IS","street":"Burg Reigerstraat","housenr":"57","zip":"3581 KM","city":"Utrecht","wifi":"y","OVS":"y","FTS":"y","GDA":"y","LTR":"y","KPS":"y","PKB":"y","disabled":"y","status":"Open from 08:00 to 22:00","phoneNumber":"0319-162514254"},{"no":"1324","lat":"51.604447","lng":"4.717107","format":"IS","street":"Beeksestraat","housenr":"55","zip":"4841 GB","city":"Prinsenbeek","wifi":"y","OVS":"y","FTS":"y","BLA":"y","GDA":"y","BLP":"y","LTR":"y","KPS":"y","PGR":"y","status":"Open from 08:00 to 20:00","phoneNumber":"0769-15420320"},{"no":"1326","lat":"52.264242","lng":"5.044696","format":"IS","street":"Voorstraat","housenr":"10","zip":"1394 CS","city":"Nederhorst Den Berg","PSS":"y","OVS":"y","FTS":"y","BLA":"y","GDA":"y","BLP":"y","LTR":"y","KPS":"y","PGR":"y","status":"Open from 08:00 to 20:00","phoneNumber":"02949-1251279"},{"no":"1327","lat":"52.028856","lng":"5.080578","format":"IS","street":"Passage","housenr":"65","zip":"3431 LN","city":"Nieuwegein","wifi":"y","PSS":"y","OVS":"y","FTS":"y","BLA":"y","ZFS":"y","GDA":"y","BLP":"y","LTR":"y","KPS":"y","PDG":"y","disabled":"y","status":"Open from 08:00 to 21:00","phoneNumber":"0319-166041144"},{"no":"1328","lat":"52.359839","lng":"4.861943","format":"IS","street":"Overtoom","housenr":"454","zip":"1054 JW","city":"Amsterdam","wifi":"y","OVS":"y","FTS":"y","BLA":"y","GDA":"y","LTR":"y","KPS":"y","PKB":"y","disabled":"y","status":"Open from 08:00 to 22:00","phoneNumber":"0219-166183065"},{"no":"1329","lat":"52.171262","lng":"5.003515","format":"IS","street":"Markt","housenr":"10","zip":"3621 AB","city":"Breukelen Ut","wifi":"y","FTS":"y","BLA":"y","BLP":"y","LTR":"y","KPS":"y","PGR":"y","status":"Open from 08:00 to 20:00","phoneNumber":"03469-1262242"},{"no":"1330","lat":"53.220082","lng":"6.566821","format":"IS","street":"Oude Ebbingestraat","housenr":"19","zip":"9712 HA","city":"Groningen","wifi":"y","OVS":"y","FTS":"y","BLA":"y","GDA":"y","BLP":"y","LTR":"y","KPS":"y","PKB":"y","disabled":"y","status":"Open from 08:00 to 22:00","phoneNumber":"0519-163133994"},{"no":"1332","lat":"52.064776","lng":"4.402108","format":"IS","street":"Simon Carmiggelthof","housenr":"55","zip":"2492 JR","city":"'S9-1Gravenhage","wifi":"y","FTS":"y","BLA":"y","GDA":"y","BLP":"y","HLA":"y","LTR":"y","KPS":"y","PGR":"y","disabled":"y","status":"Open from 08:00 to 21:00","phoneNumber":"0719-164445851"},{"no":"1333","lat":"51.958131","lng":"5.569166","format":"IS","street":"M.W. van de Waalstraat","housenr":"2","zip":"3911 LP","city":"Rhenen","OVS":"y","FTS":"y","GDA":"y","BLP":"y","LTR":"y","KPS":"y","PGR":"y","RCL":"y","status":"Open from 08:00 to 20:00","phoneNumber":"03179-1616868"},{"no":"1335","lat":"52.349134","lng":"4.839996","format":"IS","street":"Delflandplein","housenr":"31","zip":"1062 HP","city":"Amsterdam","wifi":"y","OVS":"y","FTS":"y","BLA":"y","GDA":"y","HLA":"y","LTR":"y","KPS":"y","PKB":"y","disabled":"y","status":"Open from 08:00 to 22:00","phoneNumber":"0219-166153570"},{"no":"1338","lat":"52.391633","lng":"4.87755","format":"IS","street":"Spaarndammerdijk","housenr":"3","zip":"1013 ZM","city":"Amsterdam","wifi":"y","OVS":"y","FTS":"y","BLA":"y","GDA":"y","HLA":"y","LTR":"y","KPS":"y","PKB":"y","WFS":"y","disabled":"y","status":"Open from 08:00 to 22:00","phoneNumber":"0219-166880855"},{"no":"1340","lat":"52.363747","lng":"4.83779","format":"IS","street":"August Allebeplein","housenr":"12","zip":"1062 AC","city":"Amsterdam","wifi":"y","OVS":"y","FTS":"y","BLA":"y","GDA":"y","HLA":"y","LTR":"y","KPS":"y","PBZ":"y","disabled":"y","status":"Open from 08:00 to 22:00","phoneNumber":"0219-166154201"},{"no":"1341","lat":"52.160083","lng":"5.366305","format":"IS","street":"Noordewierweg","housenr":"113","zip":"3812 DD","city":"Amersfoort","OVS":"y","FTS":"y","BLA":"y","GDA":"y","LTR":"y","KPS":"y","PGR":"y","WFS":"y","status":"Open from 08:00 to 20:00","phoneNumber":"0339-14613574"},{"no":"1342","lat":"51.927293","lng":"4.461404","format":"IS","street":"Bentinckplein","housenr":"40","zip":"3039 KM","city":"Rotterdam","wifi":"y","PSS":"y","OVS":"y","FTS":"y","BLA":"y","GDA":"y","LTR":"y","KPS":"y","PKB":"y","disabled":"y","status":"Open from 08:00 to 21:00","phoneNumber":"0119-164653436"},{"no":"1343","lat":"52.084094","lng":"4.332077","format":"IS","street":"Theresiastraat","housenr":"75","zip":"2593 AB","city":"'S9-1Gravenhage","wifi":"y","OVS":"y","FTS":"y","BLA":"y","GDA":"y","BLP":"y","LTR":"y","KPS":"y","PKB":"y","disabled":"y","status":"Open from 08:00 to 22:00","phoneNumber":"0719-163820132"},{"no":"1344","lat":"52.294727","lng":"5.262621","format":"IS","street":"Oostermeent9-1Zuid","housenr":"48","zip":"1274 SV","city":"Huizen","OVS":"y","FTS":"y","BLA":"y","ZFS":"y","GDA":"y","BLP":"y","LTR":"y","KPS":"y","PGR":"y","WFS":"y","disabled":"y","status":"Open from 08:00 to 21:00","phoneNumber":"0359-15268113"},{"no":"1345","lat":"51.847099","lng":"4.498158","format":"IS","street":"Van Beuningenhaven","housenr":"10","zip":"2993 EH","city":"Barendrecht","wifi":"y","SMS":"y","FTS":"y","BLA":"y","ZFS":"y","GDA":"y","LTR":"y","KPS":"y","PGR":"y","status":"Open from 08:00 to 20:00","phoneNumber":"01819-16626998"},{"no":"1347","lat":"52.316179","lng":"4.978609","format":"IS","street":"Karspeldreef","housenr":"1389","zip":"1104 SE","city":"Amsterdam Zuidoost","wifi":"y","OVS":"y","FTS":"y","BLA":"y","GDA":"y","BLP":"y","HLA":"y","LTR":"y","KPS":"y","PBZ":"y","WFS":"y","RCL":"y","disabled":"y","status":"Open from 08:00 to 22:00","phoneNumber":"0219-166994496"},{"no":"1348","lat":"52.359846","lng":"4.604174","format":"IS","street":"Zandvoortselaan","housenr":"169","zip":"2106 AM","city":"Heemstede","wifi":"y","FTS":"y","BLA":"y","GDA":"y","BLP":"y","LTR":"y","KPS":"y","PKB":"y","RCL":"y","status":"Open from 08:00 to 20:00","phoneNumber":"0239-15240527"},{"no":"1349","lat":"52.214701","lng":"5.155651","format":"IS","street":"Van Hogendorplaan","housenr":"44","zip":"1215 EH","city":"Hilversum","SMS":"y","OVS":"y","FTS":"y","GDA":"y","KPS":"y","PGR":"y","status":"Open from 08:00 to 20:00","phoneNumber":"0359-16245315"},{"no":"1351","lat":"50.998971","lng":"5.857857","format":"IS","street":"Brugstraat","housenr":"1","zip":"6131 AE","city":"Sittard","wifi":"y","PSS":"y","OVS":"y","FTS":"y","BLA":"y","ZFS":"y","GDA":"y","BLP":"y","HLA":"y","LTR":"y","KPS":"y","PKB":"y","WFS":"y","disabled":"y","status":"Open from 08:00 to 21:00","phoneNumber":"0469-14523353"},{"no":"1352","lat":"52.034911","lng":"4.265258","format":"IS","street":"Ambachtsgaarde","housenr":"162","zip":"2542 EJ","city":"'S9-1Gravenhage","wifi":"y","OVS":"y","BLA":"y","GDA":"y","LTR":"y","KPS":"y","PGR":"y","status":"Open from 08:00 to 20:00","phoneNumber":"0719-163677425"},{"no":"1353","lat":"52.376538","lng":"4.630755","format":"IS","street":"Grote Houtstraat","housenr":"182","zip":"2011 SZ","city":"Haarlem","wifi":"y","OVS":"y","FTS":"y","BLA":"y","GDA":"y","LTR":"y","KPS":"y","PKB":"y","disabled":"y","status":"Open from 08:00 to 22:00","phoneNumber":"0239-15312339"},{"no":"1354","lat":"52.388013","lng":"4.911109","format":"IS","street":"Meidoornplein","housenr":"38","zip":"1031 GD","city":"Amsterdam","wifi":"y","OVS":"y","BLA":"y","GDA":"y","LTR":"y","KPS":"y","PBZ":"y","WFS":"y","disabled":"y","status":"Open from 08:00 to 21:00","phoneNumber":"0219-166361301"},{"no":"1355","lat":"52.516058","lng":"6.099977","format":"IS","street":"Klein Grachtje","housenr":"16","zip":"8021 JC","city":"Zwolle","OVS":"y","FTS":"y","BLA":"y","GDA":"y","BLP":"y","HLA":"y","LTR":"y","KPS":"y","PDG":"y","disabled":"y","status":"Open from 08:00 to 21:00","phoneNumber":"0389-14549469"},{"no":"1356","lat":"51.891319","lng":"5.095548","format":"IS","street":"Vlietskant","housenr":"4","zip":"4141 CL","city":"Leerdam","PSS":"y","OVS":"y","FTS":"y","BLA":"y","GDA":"y","BLP":"y","LTR":"y","KPS":"y","PKB":"y","status":"Open from 08:00 to 20:00","phoneNumber":"03459-1610065"},{"no":"1357","lat":"51.701146","lng":"5.300644","format":"IS","street":"Gruttostraat","housenr":"23","zip":"5212 VM","city":"'S9-1Hertogenbosch","wifi":"y","OVS":"y","BLA":"y","GDA":"y","LTR":"y","KPS":"y","PGR":"y","status":"Open from 08:00 to 20:00","phoneNumber":"0739-16124386"},{"no":"1358","lat":"52.253861","lng":"6.158659","format":"IS","street":"Korte Bisschopstraat","housenr":"30","zip":"7411 HK","city":"Deventer","OVS":"y","FTS":"y","GDA":"y","LTR":"y","KPS":"y","PKB":"y","status":"Open from 08:00 to 20:00","phoneNumber":"05719-16614221"},{"no":"1359","lat":"52.012315","lng":"4.709659","format":"IS","street":"Markt","housenr":"50","zip":"2801 JL","city":"Gouda","wifi":"y","OVS":"y","GDA":"y","BLP":"y","KPS":"y","PKB":"y","status":"Open from 08:00 to 20:00","phoneNumber":"01829-1512855"},{"no":"1360","lat":"51.682783","lng":"5.130194","format":"IS","street":"Torenstraat","housenr":"43","zip":"5151 JK","city":"Drunen","wifi":"y","OVS":"y","FTS":"y","BLA":"y","GDA":"y","BLP":"y","LTR":"y","KPS":"y","GGG":"y","PGR":"y","disabled":"y","status":"Open from 08:00 to 21:00","phoneNumber":"04169-1319395"},{"no":"1361","lat":"52.267688","lng":"4.746387","format":"IS","street":"Praamplein","housenr":"4a","zip":"1431 CV","city":"Aalsmeer","wifi":"y","SMS":"y","PSS":"y","OVS":"y","FTS":"y","BLA":"y","ZFS":"y","GDA":"y","BLP":"y","LTR":"y","KPS":"y","GGG":"y","PBZ":"y","WFS":"y","disabled":"y","status":"Open from 08:00 to 21:00","phoneNumber":"02979-1341376"},{"no":"1362","lat":"52.260706","lng":"6.224106","format":"IS","street":"Andriessenplein","housenr":"34","zip":"7425 GZ","city":"Deventer","wifi":"y","PSS":"y","OVS":"y","FTS":"y","BLA":"y","GDA":"y","BLP":"y","LTR":"y","KPS":"y","PGR":"y","status":"Open from 08:00 to 20:00","phoneNumber":"05719-16514400"},{"no":"1363","lat":"52.348961","lng":"4.877658","format":"IS","street":"Gerrit van der Veenstr","housenr":"57","zip":"1077 DP","city":"Amsterdam","wifi":"y","OVS":"y","FTS":"y","BLA":"y","GDA":"y","LTR":"y","KPS":"y","PKB":"y","WFS":"y","disabled":"y","status":"Open from 08:00 to 22:00","phoneNumber":"0219-166791840"},{"no":"1366","lat":"52.0001","lng":"4.1643","format":"IS","street":"Oudelandstraat","housenr":"16","zip":"2691 CE","city":"'S9-1Gravenzande","wifi":"y","OVS":"y","FTS":"y","BLA":"y","GDA":"y","BLP":"y","LTR":"y","KPS":"y","PGR":"y","RCL":"y","SB":"y","status":"Open from 08:00 to 20:00","phoneNumber":"01749-1413700"},{"no":"1367","lat":"51.912707","lng":"4.458275","format":"IS","street":"Nieuwe Binnenweg","housenr":"288B","zip":"3021 GS","city":"Rotterdam","wifi":"y","PSS":"y","OVS":"y","FTS":"y","BLA":"y","GDA":"y","BLP":"y","HLA":"y","LTR":"y","KPS":"y","PKB":"y","disabled":"y","status":"Open from 08:00 to 21:00","phoneNumber":"0119-164258711"},{"no":"1368","lat":"51.917509","lng":"4.443987","format":"IS","street":"Mathenesserplein","housenr":"76","zip":"3022 LD","city":"Rotterdam","wifi":"y","PSS":"y","OVS":"y","FTS":"y","BLA":"y","GDA":"y","BLP":"y","HLA":"y","LTR":"y","KPS":"y","PKB":"y","disabled":"y","status":"Open from 08:00 to 21:00","phoneNumber":"0119-164253737"},{"no":"1370","lat":"51.806663","lng":"5.7274","format":"IS","street":"Europaplein","housenr":"85","zip":"6602 GV","city":"Wijchen","wifi":"y","OVS":"y","FTS":"y","BLA":"y","ZFS":"y","GDA":"y","BLP":"y","LTR":"y","KPS":"y","PBZ":"y","WFS":"y","status":"Open from 08:00 to 20:00","phoneNumber":"0249-16412521"},{"no":"1372","lat":"51.613401","lng":"4.723573","format":"IS","street":"Kesterenlaan","housenr":"150","zip":"4822 WK","city":"Breda","OVS":"y","FTS":"y","BLA":"y","GDA":"y","LTR":"y","KPS":"y","PGR":"y","status":"Open from 08:00 to 20:00","phoneNumber":"0769-15440880"},{"no":"1373","lat":"51.946876","lng":"4.85841","format":"IS","street":"Cellebroedersstraat","housenr":"1","zip":"2871 AS","city":"Schoonhoven","OVS":"y","FTS":"y","BLA":"y","ZFS":"y","GDA":"y","BLP":"y","LTR":"y","KPS":"y","PBZ":"y","WFS":"y","status":"Open from 08:00 to 20:00","phoneNumber":"01829-1381001"},{"no":"1375","lat":"51.562174","lng":"5.048709","format":"IS","street":"Professor de Moorplein","housenr":"124","zip":"5037 DN","city":"Tilburg","OVS":"y","FTS":"y","GDA":"y","BLP":"y","LTR":"y","KPS":"y","PGR":"y","disabled":"y","status":"Open from 08:00 to 22:00","phoneNumber":"0139-14680807"},{"no":"1376","lat":"52.104471","lng":"5.094101","format":"IS","street":"Amsterdamsestraatweg","housenr":"367A","zip":"3551 CK","city":"Utrecht","wifi":"y","FTS":"y","BLA":"y","GDA":"y","BLP":"y","LTR":"y","KPS":"y","PKB":"y","disabled":"y","status":"Open from 08:00 to 22:00","phoneNumber":"0319-162420200"},{"no":"1379","lat":"51.441259","lng":"5.478943","format":"IS","street":"18 Septemberplein","housenr":"23","zip":"5611 AL","city":"Eindhoven","wifi":"y","OVS":"y","FTS":"y","BLA":"y","GDA":"y","BLP":"y","LTR":"y","KPS":"y","status":"Open from 08:00 to 18:00","phoneNumber":"0419-162375500"},{"no":"1380","lat":"51.465038","lng":"5.548534","format":"IS","street":"Hoge Brake","housenr":"8","zip":"5672 GL","city":"Nuenen","OVS":"y","FTS":"y","BLA":"y","GDA":"y","LTR":"y","KPS":"y","PGR":"y","status":"Open from 08:00 to 20:00","phoneNumber":"0419-162840999"},{"no":"1381","lat":"51.833506","lng":"4.318685","format":"IS","street":"Zomerakker","housenr":"105","zip":"3206 TL","city":"Spijkenisse","wifi":"y","OVS":"y","FTS":"y","BLA":"y","GDA":"y","BLP":"y","LTR":"y","KPS":"y","PBZ":"y","status":"Open from 08:00 to 20:00","phoneNumber":"01819-1636960"},{"no":"1382","lat":"51.59088","lng":"4.800431","format":"IS","street":"Brabantplein","housenr":"24","zip":"4817 LR","city":"Breda","wifi":"y","OVS":"y","FTS":"y","BLA":"y","GDA":"y","BLP":"y","LTR":"y","KPS":"y","PGR":"y","status":"Open from 08:00 to 20:00","phoneNumber":"0769-15310300"},{"no":"1383","lat":"51.910666","lng":"4.340502","format":"IS","street":"Veerplein","housenr":"112","zip":"3131 CN","city":"Vlaardingen","wifi":"y","PSS":"y","OVS":"y","FTS":"y","BLA":"y","GDA":"y","BLP":"y","LTR":"y","KPS":"y","PDG":"y","status":"Open from 08:00 to 20:00","phoneNumber":"0119-164346338"},{"no":"1385","lat":"52.62003","lng":"4.736255","format":"XL","street":"Wendelaarstraat","housenr":"19-13","zip":"1814 GR","city":"Alkmaar","wifi":"y","SMS":"y","OVS":"y","FTS":"y","BLA":"y","ZFS":"y","GDA":"y","HLA":"y","LTR":"y","KPS":"y","GRS":"y","PGR":"y","WFS":"y","SB":"y","disabled":"y","status":"Open from 08:00 to 22:00","phoneNumber":"0729-15125044"},{"no":"1386","lat":"51.85584","lng":"4.316269","format":"IS","street":"'t Plateau","housenr":"31","zip":"3202 GL","city":"Spijkenisse","wifi":"y","OVS":"y","FTS":"y","BLA":"y","GDA":"y","BLP":"y","LTR":"y","KPS":"y","PGR":"y","status":"Open from 08:00 to 20:00","phoneNumber":"01819-1612829"},{"no":"1387","lat":"51.577759","lng":"4.739487","format":"IS","street":"Past van Spaandonkstraat","housenr":"48","zip":"4813 BS","city":"Breda","wifi":"y","OVS":"y","FTS":"y","BLA":"y","GDA":"y","LTR":"y","KPS":"y","PGR":"y","status":"Open from 08:00 to 20:00","phoneNumber":"0769-15319393"},{"no":"1388","lat":"52.019453","lng":"4.433003","format":"IS","street":"Ackershof","housenr":"539-160","zip":"2641 DZ","city":"Pijnacker","wifi":"y","OVS":"y","FTS":"y","BLA":"y","ZFS":"y","GDA":"y","BLP":"y","LTR":"y","KPS":"y","PDG":"y","WFS":"y","RCL":"y","status":"Open from 08:00 to 20:00","phoneNumber":"0159-13699311"},{"no":"1390","lat":"50.772702","lng":"6.021055","format":"IS","street":"Pr Willem Alexanderplein","housenr":"5","zip":"6291 GZ","city":"Vaals","wifi":"y","OVS":"y","FTS":"y","BLA":"y","GDA":"y","BLP":"y","LTR":"y","KPS":"y","PKB":"y","status":"Open from 08:00 to 13:00","closed":"y","phoneNumber":"0439-13060276"},{"no":"1391","lat":"52.357184","lng":"4.879663","format":"IS","street":"Van Baerlestraat","housenr":"33a","zip":"1071 AP","city":"Amsterdam","wifi":"y","OVS":"y","FTS":"y","BLA":"y","GDA":"y","BLP":"y","LTR":"y","KPS":"y","PKB":"y","WFS":"y","RCL":"y","SB":"y","disabled":"y","status":"Open from 08:00 to 22:00","phoneNumber":"0219-166620416"},{"no":"1392","lat":"52.271829","lng":"5.165976","format":"IS","street":"Laarderweg","housenr":"11","zip":"1402 BA","city":"Bussum","OVS":"y","FTS":"y","GDA":"y","KPS":"y","PGR":"y","status":"Open from 08:00 to 20:00","phoneNumber":"0359-16919206"},{"no":"1393","lat":"52.092082","lng":"4.303928","format":"IS","street":"Sumatrastraat","housenr":"2","zip":"2585 CS","city":"'S9-1Gravenhage","wifi":"y","OVS":"y","FTS":"y","BLA":"y","GDA":"y","BLP":"y","LTR":"y","KPS":"y","PKB":"y","RCL":"y","disabled":"y","status":"Open from 08:00 to 22:00","phoneNumber":"0719-163555738"},{"no":"1394","lat":"51.435279","lng":"5.451453","format":"XL","street":"Limburglaan","housenr":"2","zip":"5652 AA","city":"Eindhoven","wifi":"y","SMS":"y","OVS":"y","FTS":"y","BLA":"y","ZFS":"y","GDA":"y","BLP":"y","LTR":"y","KPS":"y","GRS":"y","PGR":"y","WFS":"y","RCL":"y","AHK":"y","disabled":"y","status":"Open from 08:00 to 22:00","phoneNumber":"0419-162914140"},{"no":"1395","lat":"52.633799","lng":"4.751413","format":"IS","street":"Noorderkade","housenr":"122","zip":"1823 CJ","city":"Alkmaar","wifi":"y","PSS":"y","OVS":"y","FTS":"y","BLA":"y","GDA":"y","LTR":"y","KPS":"y","GGG":"y","PDG":"y","status":"Open from 08:00 to 19:00","phoneNumber":"0729-15128486"},{"no":"1396","lat":"50.890715","lng":"5.984107","format":"IS","street":"Schandelerboord","housenr":"25","zip":"6415 AA","city":"Heerlen","wifi":"y","OVS":"y","FTS":"y","BLA":"y","GDA":"y","LTR":"y","KPS":"y","PGR":"y","status":"Open from 08:00 to 20:00","phoneNumber":"0459-15611550"},{"no":"1397","lat":"51.959595","lng":"5.896393","format":"XL","street":"Kronenburgpassage","housenr":"86","zip":"6831 ER","city":"Arnhem","wifi":"y","SMS":"y","PSS":"y","OVS":"y","FTS":"y","BLA":"y","ZFS":"y","GDA":"y","HLA":"y","LTR":"y","KPS":"y","GRS":"y","PGR":"y","WFS":"y","disabled":"y","status":"Open from 08:00 to 21:00","phoneNumber":"0269-13203100"},{"no":"1399","lat":"52.009765","lng":"4.360523","format":"IS","street":"Brabantse Turfmarkt","housenr":"339-143","zip":"2611 CL","city":"Delft","OVS":"y","FTS":"y","GDA":"y","BLP":"y","KPS":"y","PKB":"y","status":"Open from 08:00 to 20:00","phoneNumber":"0159-12190229"},{"no":"1400","lat":"52.35502","lng":"4.826243","format":"IS","street":"Sierplein","housenr":"78","zip":"1065 LN","city":"Amsterdam","wifi":"y","OVS":"y","FTS":"y","BLA":"y","GDA":"y","BLP":"y","HLA":"y","LTR":"y","KPS":"y","PGR":"y","disabled":"y","status":"Open from 08:00 to 22:00","phoneNumber":"0219-166153538"},{"no":"1401","lat":"52.31305","lng":"6.926015","format":"IS","street":"In den Vijfhoek","housenr":"1","zip":"7571 DT","city":"Oldenzaal","wifi":"y","FTS":"y","BLA":"y","GDA":"y","LTR":"y","KPS":"y","PKB":"y","status":"Open from 08:00 to 18:00","phoneNumber":"05419-1519191"},{"no":"1402","lat":"52.163024","lng":"4.532499","format":"IS","street":"Winkelhof","housenr":"29","zip":"2353 TS","city":"Leiderdorp","wifi":"y","PSS":"y","OVS":"y","FTS":"y","BLA":"y","ZFS":"y","GDA":"y","BLP":"y","LTR":"y","KPS":"y","PGR":"y","WFS":"y","status":"Open from 08:00 to 20:00","phoneNumber":"0719-15413454"},{"no":"1403","lat":"52.654973","lng":"4.756709","format":"IS","street":"Europaboulevard","housenr":"26","zip":"1825 SB","city":"Alkmaar","wifi":"y","SMS":"y","PSS":"y","OVS":"y","FTS":"y","BLA":"y","ZFS":"y","GDA":"y","BLP":"y","LTR":"y","KPS":"y","GRS":"y","PGR":"y","WFS":"y","disabled":"y","status":"Open from 08:00 to 21:00","phoneNumber":"0729-15622422"},{"no":"1404","lat":"52.275989","lng":"5.160695","format":"IS","street":"Veerstraat","housenr":"20","zip":"1404 CH","city":"Bussum","wifi":"y","PSS":"y","OVS":"y","FTS":"y","BLA":"y","ZFS":"y","GDA":"y","BLP":"y","LTR":"y","KPS":"y","PKB":"y","WFS":"y","disabled":"y","status":"Open from 08:00 to 21:00","phoneNumber":"0359-16937130"},{"no":"1405","lat":"52.045518","lng":"4.391441","format":"IS","street":"Lange Baan","housenr":"6","zip":"2632 GC","city":"Nootdorp","wifi":"y","OVS":"y","FTS":"y","BLA":"y","GDA":"y","LTR":"y","KPS":"y","PGR":"y","status":"Open from 08:00 to 20:00","phoneNumber":"0159-13108191"},